location_id,address_1,address_2,city,state,zip,county,location_source_value,country_concept_id,country_source_value,latitude,longitude
503102718,881 Main Street,,Fitchburg,MA,01420,,Provider: 881 Main Street,,,42.586487,-71.80521
185234939,461 WALNUT AVE,,JAMAICA PLAIN,MA,21302,,Provider: 461 WALNUT AVE,,,42.3115876,-71.09800136347226
398141936,19 TACOMA ST,,WORCESTER,MA,16053,,Provider: 19 TACOMA ST,,,42.30230485,-71.76614692511056
428440919,66 WASHINGTON ST,,STOUGHTON,MA,20722,,Provider: 66 WASHINGTON ST,,,42.14415820061801,-71.10378319512402
523616159,60 HOSPITAL RD,,LEOMINSTER,MA,14533,,Provider: 60 HOSPITAL RD,,,42.54031915,-71.76312990486304
305522173,1400 VFW Parkway,,West Roxbury,MA,02132,,Provider: 1400 VFW Parkway,,,42.2793,-71.1657
936908001,363 HIGHLAND AVE,,FALL RIVER,MA,27205,,Provider: 363 HIGHLAND AVE,,,41.7093779,-71.1460783680883
659904915,331 E FALMOUTH HWY,,E FALMOUTH,MA,25366,,Provider: 331 E FALMOUTH HWY,,,41.57853245,-70.5617374807812
173126981,280 WASHINGTON ST STE 204,,BROOKLINE,MA,24451,,Provider: 280 WASHINGTON ST STE 204,,,42.33302785,-71.1193506756953
540052682,171 HIGHLAND ST APT 303,,TAUNTON,MA,27804,,Provider: 171 HIGHLAND ST APT 303,,,41.8946107,-71.11113
141940369,11 TREMONT ST,,KINGSTON,MA,23641,,Provider: 11 TREMONT ST,,,42.00823215,-70.72984043580247
706175375,178 N MAIN ST,,SHARON,MA,20671,,Provider: 178 N MAIN ST,,,42.13301625,-71.17263163492832
375440348,3 WASHINGTON ST STE 220,,NORTH EASTON,MA,23561,,Provider: 3 WASHINGTON ST STE 220,,,42.0667665,-71.1036592
953712110,11 QUARRY HILL ROAD,,LEE,MA,12389,,Provider: 11 QUARRY HILL ROAD,,,42.2816564,-73.25307843923315
299937749,57 CITY HALL AVE,,GARDNER,MA,14402,,Provider: 57 CITY HALL AVE,,,42.5760669,-71.9934081
761721100,118 WATERHOUSE RD STE C,,BOURNE,MA,25328,,Provider: 118 WATERHOUSE RD STE C,,,41.7281115,-70.5861571324252
823550922,14 MANNING AVENUE,,LEOMINSTER,MA,14535,,Provider: 14 MANNING AVENUE,,,42.5253035,-71.7584413
257564531,20 ELM ST,,PITTSFIELD,MA,12016,,Provider: 20 ELM ST,,,42.4458896,-73.2448206979669
329547380,4 COURTHOUSE LN,,CHELMSFORD,MA,18241,,Provider: 4 COURTHOUSE LN,,,42.62439345,-71.35881000636567
806831780,143 LONGWATER DRIVE,,WEYMOUTH,MA,21902,,Provider: 143 LONGWATER DRIVE,,,42.2212188,-70.9391625
845077666,244 MAIN STREET ANNEX,,WORCESTER,MA,16023,,Provider: 244 MAIN STREET ANNEX,,,42.2625621,-71.8018877
224483990,70 FULTON ST,,BOSTON,MA,21091,,Provider: 70 FULTON ST,,,42.362439499999994,-71.05377386223965
940580602,200 PROVIDENCE HWY,,DEDHAM,MA,20261,,Provider: 200 PROVIDENCE HWY,,,42.22214545274341,-71.18159060546684
317989741,311 STATE STREET,,SPRINGFIELD,MA,11051,,Provider: 311 STATE STREET,,,42.10500795,-72.58124154847081
505433785,300 KENSINGTON AVE,,SPRINGFIELD,MA,11071,,Provider: 300 KENSINGTON AVE,,,42.091896,-72.559437
916457099,70-71 N PARISH RD,,LAWRENCE,MA,01843,,Provider: 70-71 N PARISH RD,,,42.690315,-71.150015
483148829,57 PROSPECT ST,,NANTUCKET,MA,25542,,Provider: 57 PROSPECT ST,,,41.27514065,-70.10108985970798
732713384,194 ROCKDALE AVE,,WEYMOUTH,MA,21882,,Provider: 194 ROCKDALE AVE,,,42.2212188,-70.9391625
399043905,105 ERDMAN WAY,,LEOMINSTER,MA,14531,,Provider: 105 ERDMAN WAY,,,42.54685255,-71.75737313871981
680903598,34 GIFFORD ST,,NEW BEDFORD,MA,27442,,Provider: 34 GIFFORD ST,,,41.6177929,-70.91890087055067
381321704,295 VARNUM AVE,,WESTFORD,MA,18863,,Provider: 295 VARNUM AVE,,,42.5792583,-71.4378411
310061382,505 PARADISE RD,,SALEM,MA,19704,,Provider: 505 PARADISE RD,,,42.485927,-70.900301
534624599,85 HERRICK ST,,BEVERLY,MA,19151,,Provider: 85 HERRICK ST,,,42.56415055,-70.8751357650672
942852847,140 WOOD RD,,WEYMOUTH,MA,21901,,Provider: 140 WOOD RD,,,42.2212188,-70.9391625
467880425,10 CENTENNIAL DR,,PEABODY,MA,19607,,Provider: 10 CENTENNIAL DR,,,42.5261827,-70.9529896
586178452,800 WASHINGTON ST,,NORWOOD,MA,20623,,Provider: 800 WASHINGTON ST,,,42.1886973,-71.2005241
978326209,200 Springs Rd.,,Bedford,MA,01730,,Provider: 200 Springs Rd.,,,42.503376,-71.272644
497488150,63 FOUNTAIN ST STE 402,,FRAMINGHAM,MA,17026,,Provider: 63 FOUNTAIN ST STE 402,,,42.27595495,-71.42631150114194
558993032,605 Lincoln Street,,Worcester,MA,01605,,Provider: 605 Lincoln Street,,,42.297756,-71.766815
158524136,ROUTE 6   P O BOX 1430,,WELLFLEET,MA,26677,,Provider: ROUTE 6   P O BOX 1430,,,41.936423,-70.021074
383973352,42 ASBURY ST,,SOUTH HAMILTON,MA,19821,,Provider: 42 ASBURY ST,,,42.61322825,-70.87300675048934
814937204,480 ROUTE 6A,,EAST SANDWICH,MA,25371,,Provider: 480 ROUTE 6A,,,41.742172,-70.45251
902841938,1601 WASHINGTON STREET,,BOSTON,MA,21181,,Provider: 1601 WASHINGTON STREET,,,42.3381394,-71.0748562
198396892,795 MIDDLE ST,,FALL RIVER,MA,27211,,Provider: 795 MIDDLE ST,,,41.6924092,-71.16345107025307
758828495,250 GREEN ST,,GARDNER,MA,01440,,Provider: 250 GREEN ST,,,42.586896550000006,-71.98672640006858
397207751,70 EAST STREET,,NORTH ANDOVER,MA,18456,,Provider: 70 EAST STREET,,,42.6839894,-71.1127065
618998375,1029 PLEASANT ST,,BRIDGEWATER,MA,23242,,Provider: 1029 PLEASANT ST,,,41.9718173,-71.00937893001648
22470897,363 HIGHLAND AVENUE,,WAREHAM,MA,25715,,Provider: 363 HIGHLAND AVENUE,,,41.745636,-70.658192
512586147,326 NICHOLS ROAD,,FITCHBURG,MA,14205,,Provider: 326 NICHOLS ROAD,,,42.5974358,-71.80761197366103
883701812,9 BICKNELL ST,,QUINCY,MA,21696,,Provider: 9 BICKNELL ST,,,42.252227399999995,-70.96584679278924
413679468,1061 PLEASANT ST,,NEW BEDFORD,MA,27406,,Provider: 1061 PLEASANT ST,,,41.64280275,-70.92865004309593
232860137,170 GOVERNORS AVE,,MELROSE,MA,21763,,Provider: 170 GOVERNORS AVE,,,42.4564323,-71.064182
380936966,303 C HAVERHILL STREET,,ROWLEY,MA,19692,,Provider: 303 C HAVERHILL STREET,,,42.704962,-70.90837
535199070,242 GREEN ST,,WINCHENDON,MA,14751,,Provider: 242 GREEN ST,,,42.68061,-72.060691
698455550,1244 BOYLSTON ST,,CHESTNUT HILL,MA,24672,,Provider: 1244 BOYLSTON ST,,,42.3214927,-71.1711481
195857327,114 WATER ST,,MILFORD,MA,17573,,Provider: 114 WATER ST,,,42.13661855,-71.53474614336832
720380025,562 WASHINGTON ST,,SOUTH ATTLEBORO,MA,27036,,Provider: 562 WASHINGTON ST,,,41.91289205,-71.36135809627689
547311212,230 MAPLE ST,,HOLYOKE,MA,10405,,Provider: 230 MAPLE ST,,,42.207406,-72.608419
521936167,935 WASHINGTON ST,,NORWOOD,MA,20623,,Provider: 935 WASHINGTON ST,,,42.18396765,-71.2037844209652
499216516,463 WORCESTER RD,,FRAMINGHAM,MA,17015,,Provider: 463 WORCESTER RD,,,42.3095704,-71.4413097
882579389,1428 MAIN ST STE 7,,WALPOLE,MA,20811,,Provider: 1428 MAIN ST STE 7,,,42.1325911,-71.2618886
156901487,170 MORTON ST,,BOSTON,MA,21303,,Provider: 170 MORTON ST,,,42.299067750000006,-71.10124351911541
622186570,1493 CAMBRIDGE ST,,SOMERVILLE,MA,21431,,Provider: 1493 CAMBRIDGE ST,,,42.3875968,-71.0994968
371034050,142 BERKELEY ST,,BOSTON,MA,21164,,Provider: 142 BERKELEY ST,,,42.3489076,-71.0721378
275379701,65 WALNUT ST.,,WELLESLEY,MA,24812,,Provider: 65 WALNUT ST.,,,42.32473045,-71.25364984557581
140590599,250 GREEN ST,,GARDNER,MA,14401,,Provider: 250 GREEN ST,,,42.586896550000006,-71.98672640006858
554714267,800 WASHINGTON ST,,BOSTON,MA,21111,,Provider: 800 WASHINGTON ST,,,42.349439700000005,-71.06308467518953
629794677,210 JONES RD,,FALMOUTH,MA,25402,,Provider: 210 JONES RD,,,41.5614958,-70.6117407224321
284133378,245 VINEYARD HAVEN-EDGARTOWN ROAD,,EDGARTOWN,MA,25396,,Provider: 245 VINEYARD HAVEN-EDGARTOWN ROAD,,,41.395500350000006,-70.5300948008162
873476317,10 RESEARCH PL STE 202,,NORTH CHELMSFORD,MA,18632,,Provider: 10 RESEARCH PL STE 202,,,42.6389798,-71.3828403
406788785,1153 CENTRE ST,,BOSTON,MA,21303,,Provider: 1153 CENTRE ST,,,42.3017598,-71.12855793387442
801622553,175 CONNORS STREET,,GARDNER,MA,14402,,Provider: 175 CONNORS STREET,,,42.5730593,-71.99713285
279454853,115 LINCOLN ST,,NATICK,MA,17607,,Provider: 115 LINCOLN ST,,,42.2843753,-71.3441395
975271460,81 OLD COLONY WAY STE D,,ORLEANS,MA,26533,,Provider: 81 OLD COLONY WAY STE D,,,41.78403385,-70.00060868097228
693305375,170 MORTON STREET,,JAMAICA PLAIN,MA,21303,,Provider: 170 MORTON STREET,,,42.299067750000006,-71.10124351911541
339729869,91 EAST MOUNTAIN ROAD,,WESTFIELD,MA,10851,,Provider: 91 EAST MOUNTAIN ROAD,,,42.110743549999995,-72.70066160206358
672102466,354 WAVERLY ST,,FRAMINGHAM,MA,17027,,Provider: 354 WAVERLY ST,,,42.276938650000005,-71.41386787587439
635567425,88 EAST NEWTON STREET,,WINTHROP,MA,21522,,Provider: 88 EAST NEWTON STREET,,,42.3750976,-70.982827
75261874,27 CENTENNIAL DR,,PEABODY,MA,01960,,Provider: 27 CENTENNIAL DR,,,42.52388415,-70.9519832
698179096,600 OLD SOMERSET AVE,,NORTH DIGHTON,MA,27641,,Provider: 600 OLD SOMERSET AVE,,,41.86399,-71.1244904
908175079,46 NORTH MAIN ST,,W BROOKFIELD,MA,15853,,Provider: 46 NORTH MAIN ST,,,42.23754835,-72.13791547215251
223562760,909 SUMNER ST,,DARTMOUTH,MA,27473,,Provider: 909 SUMNER ST,,,41.6332267,-70.9879928
907251540,640 BOLTON ST,,MARLBOROUGH,MA,17523,,Provider: 640 BOLTON ST,,,42.3658183,-71.55914630258509
123194713,759 CHESTNUT ST,,WARE,MA,10821,,Provider: 759 CHESTNUT ST,,,42.256476,-72.237482
783108235,45 DAN RD,,WELLESLEY,MA,24813,,Provider: 45 DAN RD,,,42.2964859,-71.2925571
575343410,780 CHESTNUT ST,,SPRINGFIELD,MA,11031,,Provider: 780 CHESTNUT ST,,,42.1211633,-72.60614164702717
643560535,361 WOODWARD ST,,WABAN,MA,24682,,Provider: 361 WOODWARD ST,,,42.326011949999994,-71.2254251580706
849721000,95 CHAPEL ST # 3-D,,NORWOOD,MA,20623,,Provider: 95 CHAPEL ST # 3-D,,,42.194543,-71.1994976
971282897,100 TRADE CENTER SUITE G-700,,WOBURN,MA,18011,,Provider: 100 TRADE CENTER SUITE G-700,,,42.4792618,-71.1522766
497936792,1193 SEA ST,,QUINCY,MA,21693,,Provider: 1193 SEA ST,,,42.26883395,-70.95264075087945
86190431,41 & 45 MALL ROAD,,PEABODY,MA,19602,,Provider: 41 & 45 MALL ROAD,,,42.5278731,-70.9286609
325276338,222 STATE STREET,,LUDLOW,MA,10563,,Provider: 222 STATE STREET,,,42.15547415,-72.47222226666076
31002032,148 CHESTNUT ST,,NEEDHAM,MA,24943,,Provider: 148 CHESTNUT ST,,,42.27728075,-71.23665362814043
794932221,20 POND MEADOW DR,,READING,MA,18673,,Provider: 20 POND MEADOW DR,,,42.5166455,-71.09917578750729
846073777,49 SAMOSET AVE,,HULL,MA,20452,,Provider: 49 SAMOSET AVE,,,42.2810432,-70.8703157542509
835812703,255 Park Ave Suite # 900,,Worcester,MA,01609,,Provider: 255 Park Ave Suite # 900,,,42.265556,-71.818665
123290765,56 COLPITTS RD,,WESTON,MA,24931,,Provider: 56 COLPITTS RD,,,42.36610065,-71.3036759
147422442,474 PLEASANT ST,,NORWOOD,MA,20624,,Provider: 474 PLEASANT ST,,,42.1816837,-71.19722229999999
201734363,85 E MAIN ST STE A,,NORTON,MA,27662,,Provider: 85 E MAIN ST STE A,,,41.971697,-71.17689334021827
408958577,6 ESSEX CENTER DR STE 201,,PEABODY,MA,19602,,Provider: 6 ESSEX CENTER DR STE 201,,,42.539944,-70.950156
178534742,940 Belmont Street,,Brockton,MA,02301,,Provider: 940 Belmont Street,,,42.065655,-71.05398
727554218,89 FOSTER ST,,PEABODY,MA,19608,,Provider: 89 FOSTER ST,,,42.5278731,-70.9286609
981100274,450 BEDFORD ST,,LEXINGTON,MA,02420,,Provider: 450 BEDFORD ST,,,42.47370735,-71.25090005
813281835,3 WOODLAND RD,,STONEHAM,MA,21801,,Provider: 3 WOODLAND RD,,,42.4524431,-71.08939988105112
467030107,340 MAIN ST,,WORCESTER,MA,16081,,Provider: 340 MAIN ST,,,42.53616075,-71.74831883675786
338420286,30 LOCUST ST,,NORTHAMPTON,MA,10602,,Provider: 30 LOCUST ST,,,42.33032115,-72.65330802608176
736774598,65 FREMONT ST,,MARLBOROUGH,MA,17521,,Provider: 65 FREMONT ST,,,42.3520304,-71.55517867455714
577483313,60 HODGES AVE,,TAUNTON,MA,27803,,Provider: 60 HODGES AVE,,,41.91158935,-71.10129620180315
4017881,155 MAPLE ST,,SPRINGFIELD,MA,11051,,Provider: 155 MAPLE ST,,,42.1004364,-72.57897095
883075091,1575 BLUE HILL AVE,,BOSTON,MA,21262,,Provider: 1575 BLUE HILL AVE,,,42.2698727,-71.0940406
578167366,12 LITTLEVILLE RD,,HUNTINGTON,MA,10509,,Provider: 12 LITTLEVILLE RD,,,42.257603957277915,-72.87133712317558
672954963,700 ESSEX STREET,,LAWRENCE,MA,18414,,Provider: 700 ESSEX STREET,,,42.7020708,-71.17231
553274669,63 MAIN ST,,BROCKTON,MA,23014,,Provider: 63 MAIN ST,,,42.084598840000005,-71.01995972
868962645,800 WASHINGTON STREET,,STONEHAM,MA,21802,,Provider: 800 WASHINGTON STREET,,,42.4863168,-71.0928919
431272201,76 SUMMER ST,,HAVERHILL,MA,18305,,Provider: 76 SUMMER ST,,,42.7786873,-71.07306505177553
123448939,532 SUMNER AVE,,SPRINGFIELD,MA,11082,,Provider: 532 SUMNER AVE,,,42.08631583333334,-72.55792579166666
839366387,111 HUNTOON MEMORIAL HIGHWAY  1ST FLOOR,,SPRINGFIELD,MA,11092,,Provider: 111 HUNTOON MEMORIAL HIGHWAY  1ST FLOOR,,,42.1018764,-72.5886727
525309186,169 LIBERTY ST,,MIDDLETON,MA,19491,,Provider: 169 LIBERTY ST,,,42.61522605,-71.0144865346162
441648320,909 SUMNER ST,,STOUGHTON,MA,20723,,Provider: 909 SUMNER ST,,,42.1005097,-71.0830269025407
752825258,1 HOSPITAL RD,,OAK BLUFFS,MA,25571,,Provider: 1 HOSPITAL RD,,,41.46063105,-70.57989080295974
491489483,164 HIGH ST,,GREENFIELD,MA,13012,,Provider: 164 HIGH ST,,,42.595268700000005,-72.59288632376354
70192712,100 FOXBOROUGH BLVD STE 230,,FOXBOROUGH,MA,20352,,Provider: 100 FOXBOROUGH BLVD STE 230,,,42.041851949999995,-71.23486657070565
954051075,123 SUMMER ST,,WORCESTER,MA,01608,,Provider: 123 SUMMER ST,,,42.26496835,-71.79655403681465
515693588,30-40 WESTPARK STREET,,BROCKTON,MA,23015,,Provider: 30-40 WESTPARK STREET,,,42.0834335,-71.0183787
996402615,725 ALBANY STREET,,NORWOOD,MA,02062,,Provider: 725 ALBANY STREET,,,42.194543,-71.1994976
166020956,175 Elm Street,,New Bedford,MA,02740,,Provider: 175 Elm Street,,,41.635937,-70.92991
706549001,116 Long Pond Road,,Plymouth,MA,02360,,Provider: 116 Long Pond Road,,,41.924313,-70.656654
545390484,269 UNION STREET,,LYNN,MA,19011,,Provider: 269 UNION STREET,,,42.4652772,-70.94362420273097
412486521,771 CHURCH ST,,NORTH ADAMS,MA,12474,,Provider: 771 CHURCH ST,,,42.680927100000005,-73.09950699822534
873967231,32 BOSSI AVE,,RANDOLPH,MA,23682,,Provider: 32 BOSSI AVE,,,42.20017865,-71.0582074
175097021,101 AMESBURY ST,,LAWRENCE,MA,18401,,Provider: 101 AMESBURY ST,,,42.70904,-71.16393
410650295,70 EAST ST,,METHUEN,MA,18445,,Provider: 70 EAST ST,,,42.7285558,-71.16833738237946
915128487,21 MAIN ST,,NORTH READING,MA,18641,,Provider: 21 MAIN ST,,,42.56697195,-71.10799861135133
262798944,300 SOUTH ST,,WOBURN,MA,18014,,Provider: 300 SOUTH ST,,,42.473347,-71.144086
350802795,600 CLARK RD,,TEWKSBURY,MA,18761,,Provider: 600 CLARK RD,,,42.63120935,-71.27023603178071
167958532,105 CHESTNUT ST STE 35,,PLYMOUTH,MA,23604,,Provider: 105 CHESTNUT ST STE 35,,,41.884685,-70.847219
985496832,63 MAIN ST,,HYANNIS,MA,26013,,Provider: 63 MAIN ST,,,41.6562005,-70.27336188244256
23058136,800 WASHINGTON ST,,WORCESTER,MA,16550,,Provider: 800 WASHINGTON ST,,,42.180483,-71.867782
120660840,398 NEPONSET AVE,,DORCHESTER,MA,21223,,Provider: 398 NEPONSET AVE,,,42.2867644,-71.04402811508834
673080110,211 PARK ST,,ATTLEBORO,MA,27033,,Provider: 211 PARK ST,,,41.9419187,-71.2752081695297
545118685,450 W RIVER ST,,ORANGE,MA,13641,,Provider: 450 W RIVER ST,,,42.5928702,-72.32953998953418
691822658,15 LENOX ST.,,SPRINGFIELD,MA,11083,,Provider: 15 LENOX ST.,,,42.085779,-72.55846414285715
150030322,51 S CHURCH ST,,PITTSFIELD,MA,12016,,Provider: 51 S CHURCH ST,,,42.44648205,-73.25863241543368
579890147,111 HUNTOON MEMORIAL HWY,,ROCHDALE,MA,15421,,Provider: 111 HUNTOON MEMORIAL HWY,,,42.2020225,-71.89891616754682
144478506,19 HENRY ST,,SHARON,MA,20671,,Provider: 19 HENRY ST,,,42.1091473,-71.20768205338297
471612508,1030 FALMOUTH RD,,SOUTH YARMOUTH,MA,26641,,Provider: 1030 FALMOUTH RD,,,41.6667779,-70.1847414
866184081,5 PRECINCT ST,,LAKEVILLE,MA,23471,,Provider: 5 PRECINCT ST,,,41.8455651,-70.95195924208448
324190550,101 JACKSON ST,,LOWELL,MA,18522,,Provider: 101 JACKSON ST,,,42.64221447368421,-71.31029421052632
685352252,489 WASHINGTON ST STE 202,,AUBURN,MA,15015,,Provider: 489 WASHINGTON ST STE 202,,,42.187836,-71.83104
398608102,189 MAY ST,,WORCESTER,MA,16024,,Provider: 189 MAY ST,,,42.25986305,-71.83597786023279
997506524,174 ARMISTICE BLVD STE A,,FALL RIVER,MA,27212,,Provider: 174 ARMISTICE BLVD STE A,,,41.7010642,-71.1546367
542557715,90 ROUTE 6A,,SANDWICH,MA,25635,,Provider: 90 ROUTE 6A,,,41.76404705,-70.50066669296109
822529480,81 HIGHLAND AVE,,SWAMPSCOTT,MA,19072,,Provider: 81 HIGHLAND AVE,,,42.4699241,-70.9171507
935639477,30 WARREN ST,,BOSTON,MA,21353,,Provider: 30 WARREN ST,,,42.3501483,-71.14393324457691
508372156,1430 MAIN ST,,WORCESTER,MA,16091,,Provider: 1430 MAIN ST,,,42.2492003,-71.92931780325071
545722476,4199 WASHINGTON ST,,ROSLINDALE,MA,21311,,Provider: 4199 WASHINGTON ST,,,42.2871447,-71.1277526
713438757,565 TURNPIKE ST STE 71,,NORTH ANDOVER,MA,18455,,Provider: 565 TURNPIKE ST STE 71,,,42.664934200000005,-71.11635234067887
94396367,147 PELHAM ST,,METHUEN,MA,18442,,Provider: 147 PELHAM ST,,,42.7288158,-71.20222773774655
377169905,40 WRIGHT ST,,PALMER,MA,10691,,Provider: 40 WRIGHT ST,,,42.16934095,-72.34120457065711
256163463,651 ORCHARD ST,,NEW BEDFORD,MA,27441,,Provider: 651 ORCHARD ST,,,41.6149879,-70.93113851963673
135830073,55 FRUIT ST,,BOSTON,MA,21142,,Provider: 55 FRUIT ST,,,42.36286045,-71.06875296664998
878810255,58 OLD NORTH RD,,WORTHINGTON,MA,10989,,Provider: 58 OLD NORTH RD,,,42.414246,-72.93841842197347
568368249,40 WALNUT ST,,WELLESLEY,MA,24812,,Provider: 40 WALNUT ST,,,42.32553365,-71.25238403429299
570648918,135 WEBSTER ST,,WEYMOUTH,MA,21901,,Provider: 135 WEBSTER ST,,,42.2212188,-70.9391625
831544170,6111 OAK TREE BLVD STE 301,,FRAMINGHAM,MA,17014,,Provider: 6111 OAK TREE BLVD STE 301,,,42.3095704,-71.4413097
612042917,450 BROOKLINE AVE,,WEYMOUTH,MA,21893,,Provider: 450 BROOKLINE AVE,,,42.2212188,-70.9391625
834838055,833 MAIN ST,,S YARMOUTH,MA,26645,,Provider: 833 MAIN ST,,,41.65171785,-70.21464095380932
577556027,800 TURNPIKE ST STE 300,,NORTH ANDOVER,MA,18456,,Provider: 800 TURNPIKE ST STE 300,,,42.66074825,-71.10724143845708
215336656,80 SUMMER ST STE 1,,BOSTON,MA,21101,,Provider: 80 SUMMER ST STE 1,,,42.35403315,-71.05809515865283
292489016,2033 MAIN ST,,ATHOL,MA,13313,,Provider: 2033 MAIN ST,,,42.58522105,-72.20868129339888
785676125,255 PARK AVE,,WORCESTER,MA,16091,,Provider: 255 PARK AVE,,,42.26491135,-71.8185187
157255882,825 WASHINGTON ST,,NORWOOD,MA,20623,,Provider: 825 WASHINGTON ST,,,42.18864775,-71.20380467780485
646103409,500 COLUMBIA RD,,DORCHESTER,MA,21252,,Provider: 500 COLUMBIA RD,,,42.3147979,-71.067633
369782675,50 REDFIELD ST,,WORCESTER,MA,16081,,Provider: 50 REDFIELD ST,,,42.2625621,-71.8018877
362932850,199 REEDSDALE RD,,MILTON,MA,21863,,Provider: 199 REEDSDALE RD,,,42.2513683,-71.0768393856917
46400444,11-15 SANDERSDALE ROAD,,WORCESTER,MA,16032,,Provider: 11-15 SANDERSDALE ROAD,,,42.0667952,-72.0084995
357658589,50 ROWE ST,,MELROSE,MA,21763,,Provider: 50 ROWE ST,,,42.4592093,-71.06078096379728
400781250,110 W SQUANTUM ST,,NORTH QUINCY,MA,21712,,Provider: 110 W SQUANTUM ST,,,42.27259075,-71.03082765
312645508,900 CUMMING CENTER,,BEVERLY,MA,19156,,Provider: 900 CUMMING CENTER,,,42.5584284,-70.8800491
368792599,275 SANDWICH ST,,PLYMOUTH,MA,23607,,Provider: 275 SANDWICH ST,,,41.94186605,-70.6455366462985
582780023,37 DERBY ST,,QUINCY,MA,21697,,Provider: 37 DERBY ST,,,42.2509914,-71.0037374
362363922,1041L Pearl St.,,Brockton,MA,02301,,Provider: 1041L Pearl St.,,,42.055134,-71.06661
211913031,108 Merrimack St.,,Haverhill,MA,01830,,Provider: 108 Merrimack St.,,,42.77449,-71.07901
625292059,21 HIGHLAND AVE,,NEWBURYPORT,MA,19503,,Provider: 21 HIGHLAND AVE,,,42.814341671166744,-70.88998002772408
553177201,575 BEECH ST,,HOLYOKE,MA,10402,,Provider: 575 BEECH ST,,,42.20105435,-72.628169560868
103997995,4499 ACUSHNET AVE,,NEW BEDFORD,MA,27454,,Provider: 4499 ACUSHNET AVE,,,41.74026055,-70.9450945705336
422217356,200 MAY ST,,SOUTH ATTLEBORO,MA,27035,,Provider: 200 MAY ST,,,41.924394750000005,-71.36076410900014
612208700,1233 MAIN ST,,HOLYOKE,MA,10405,,Provider: 1233 MAIN ST,,,42.16578055,-72.63389634691956
302496054,73 Eagle Street,,Pittsfield,MA,01201,,Provider: 73 Eagle Street,,,42.451427,-73.25195
701201987,197 ADAMS RD,,WILLIAMSTOWN,MA,12672,,Provider: 197 ADAMS RD,,,42.7041261,-73.19043030392987
416401923,2 REEDSDALE RD,,MILTON,MA,21863,,Provider: 2 REEDSDALE RD,,,42.258080449999994,-71.08070895097364
711814043,840 HARRISON AVE,,ROXBURY,MA,21203,,Provider: 840 HARRISON AVE,,,42.3279605,-71.0830607
218920514,50 W MAIN ST,,HOPKINTON,MA,17481,,Provider: 50 W MAIN ST,,,42.22029125,-71.53814854921914
816859066,74 MAIN ST,,FRAMINGHAM,MA,17022,,Provider: 74 MAIN ST,,,42.2976266,-71.42605348361442
477620354,100 TER HEUN DR,,SANDWICH,MA,25632,,Provider: 100 TER HEUN DR,,,41.7579043,-70.4968152
978921789,300 TRADECENTER STE 4750,,WOBURN,MA,18017,,Provider: 300 TRADECENTER STE 4750,,,42.4994143,-71.161659
431975077,29 ORCHARD ST,,SOUTHBRIDGE,MA,15504,,Provider: 29 ORCHARD ST,,,42.076356200000006,-72.04167805
375477159,97 LIBBEY PKWY,,WEYMOUTH,MA,21893,,Provider: 97 LIBBEY PKWY,,,42.19322885,-70.94589987654936
196412354,142 LAKE ST,,ARLINGTON,MA,24764,,Provider: 142 LAKE ST,,,42.40328885,-71.15140830652837
845463861,22 MILL ST,,ARLINGTON,MA,24764,,Provider: 22 MILL ST,,,42.4177455,-71.1579688
887524141,300 LONGWOOD AVE,,WALTHAM,MA,24532,,Provider: 300 LONGWOOD AVE,,,42.3756401,-71.2358004
279470830,332 HANOVER STREET,,BOSTON,MA,21131,,Provider: 332 HANOVER STREET,,,42.3647421,-71.0536619
907147453,73 W MAIN ST,,HOPKINTON,MA,17481,,Provider: 73 W MAIN ST,,,42.21799145,-71.54005509979045
755985581,242 SUTTON ST,,NORTH ANDOVER,MA,18451,,Provider: 242 SUTTON ST,,,42.70773345,-71.1300651
4252711,80 LINCOLN STREET,,WALTHAM,MA,24535,,Provider: 80 LINCOLN STREET,,,42.39322121170625,-71.24104146434591
541831164,200 BOYLSTON ST,,CHESTNUT HILL,MA,24672,,Provider: 200 BOYLSTON ST,,,42.31886965,-71.17524247213663
761334133,52 OLNEY RD,,CHICOPEE,MA,10202,,Provider: 52 OLNEY RD,,,42.1487691,-72.6071119
851354566,28 LORD RD,,MARLBOROUGH,MA,17524,,Provider: 28 LORD RD,,,42.34718040987546,-71.57283065352654
470305402,19 DEPOT STREET,,ADAMS,MA,12201,,Provider: 19 DEPOT STREET,,,42.623644600000006,-73.11852130252683
490442258,110 LONG POND RD,,PLYMOUTH,MA,23602,,Provider: 110 LONG POND RD,,,41.9255829,-70.65514326847389
571611922,12 VICTORIA LN,,STONEHAM,MA,21802,,Provider: 12 VICTORIA LN,,,42.4916624,-71.10288588889674
128659026,680 CENTRE ST,,RAYNHAM,MA,02767,,Provider: 680 CENTRE ST,,,41.9487118,-71.0731008
475511150,133 OLD ROAD TO 9 ACRE COR,,WESTFORD,MA,18863,,Provider: 133 OLD ROAD TO 9 ACRE COR,,,42.5792583,-71.4378411
647488346,180 GEORGE WASHINGTON BLVD,,HULL,MA,20453,,Provider: 180 GEORGE WASHINGTON BLVD,,,42.2630377,-70.8606109
787625778,26 QUEEN ST,,WORCESTER,MA,16102,,Provider: 26 QUEEN ST,,,42.25930925,-71.81494729825698
921592398,200 GROTON ROAD,,GROTON,MA,14502,,Provider: 200 GROTON ROAD,,,42.57735215,-71.57414587343038
944944717,800 W CUMMINGS PARK STE 2250,,WOBURN,MA,18016,,Provider: 800 W CUMMINGS PARK STE 2250,,,42.4961562,-71.1258904921298
532650982,340 MAPLE ST,,MARLBOROUGH,MA,17523,,Provider: 340 MAPLE ST,,,42.3358161,-71.54106510218209
611159033,350 LINCOLN ST STE 1102,,HINGHAM,MA,20432,,Provider: 350 LINCOLN ST STE 1102,,,42.248735,-70.9209846
983372663,157 UNION ST,,SOUTHBOROUGH,MA,17721,,Provider: 157 UNION ST,,,42.3056501,-71.5245087
10887179,73 Huttleton Ave.  Unit 2,,Fairhaven,MA,02719,,Provider: 73 Huttleton Ave.  Unit 2,,,41.6318,-70.8801
945742290,212 S MEADOW RD UNIT 5C,,PLYMOUTH,MA,23605,,Provider: 212 S MEADOW RD UNIT 5C,,,41.9426657,-70.7618592
106263119,NEW ENGLAND SINAI HOSPITAL,,MILTON,MA,21862,,Provider: NEW ENGLAND SINAI HOSPITAL,,,42.2501425,-71.065573
897436147,37 MINUTEMAN WAY,,SHREWSBURY,MA,15452,,Provider: 37 MINUTEMAN WAY,,,42.288207,-71.73443816915585
189020468,115 LINCOLN STREET,,WORCESTER,MA,16081,,Provider: 115 LINCOLN STREET,,,42.2768165,-71.795274
746814208,30 NEWCROSSING RD STE 301,,READING,MA,01867,,Provider: 30 NEWCROSSING RD STE 301,,,42.51809619399502,-71.0959083715027
22240792,133 LITTLETON RD,,WESTFORD,MA,01886,,Provider: 133 LITTLETON RD,,,42.57056335,-71.41736646422413
568285226,361 MAIN ST,,WAREHAM,MA,25712,,Provider: 361 MAIN ST,,,41.7613849,-70.71911431737183
486023295,10 CORDAGE PARK CIR,,PLYMOUTH,MA,23607,,Provider: 10 CORDAGE PARK CIR,,,41.9788991,-70.6879608
516640247,143 Munson Street,,Greenfield,MA,01301,,Provider: 143 Munson Street,,,42.580627,-72.623634
514049873,400 STANLEY ST,,FALL RIVER,MA,27206,,Provider: 400 STANLEY ST,,,41.7148511,-71.13527009152534
719989872,1010 SOUTH MAIN STREET,,FALL RIVER,MA,27242,,Provider: 1010 SOUTH MAIN STREET,,,41.69077545,-71.16515282264554
777621718,250 MOUNT VERNON ST,,DORCHESTER,MA,21253,,Provider: 250 MOUNT VERNON ST,,,42.3194571,-71.04610844302991
710862133,330 MOUNT AUBURN STREET,,WALTHAM,MA,02452,,Provider: 330 MOUNT AUBURN STREET,,,42.3756401,-71.2358004
542489196,709 WASHINGTON STREET,,CANTON,MA,02021,,Provider: 709 WASHINGTON STREET,,,42.1561851,-71.1452049
280698309,65 WALNUT ST,,WELLESLEY HILLS,MA,24812,,Provider: 65 WALNUT ST,,,42.3213892,-71.2586343
673763666,260 ELM ST,,SOMERVILLE,MA,21442,,Provider: 260 ELM ST,,,42.3955992,-71.1227391
616514444,65 NEWBURYPORT TPKE,,NEWBURY,MA,19501,,Provider: 65 NEWBURYPORT TPKE,,,42.7891081,-70.87774011339009
87422420,256 GEORGETOWN RD,,BOXFORD,MA,19211,,Provider: 256 GEORGETOWN RD,,,42.697599999999994,-70.98887494259449
814765130,110 West Squantum Street,,Quincy,MA,02169,,Provider: 110 West Squantum Street,,,42.272617,-71.03133
875872329,2 MEETING HOUSE RD,,CHELMSFORD,MA,18242,,Provider: 2 MEETING HOUSE RD,,,42.60140085,-71.35097894451894
120975356,115 W SILVER ST,,WESTFIELD,MA,10853,,Provider: 115 W SILVER ST,,,42.1178811,-72.75935246865802
53459692,10 George Street  Gateway Center,,Lowell,MA,01852,,Provider: 10 George Street  Gateway Center,,,42.642513,-71.3062
553601311,81 RESERVOIR DRIVE,,ATHOL,MA,13314,,Provider: 81 RESERVOIR DRIVE,,,42.58115235,-72.18775715069674
519045780,52 CARPENTER ST,,ATTLEBORO,MA,27032,,Provider: 52 CARPENTER ST,,,41.9369576,-71.27996091755344
995876869,451 ANDOVER ST STE 205,,NORTH ANDOVER,MA,18455,,Provider: 451 ANDOVER ST STE 205,,,42.6734518,-71.1268776
348579532,275 TURNPIKE ST,,BRAINTREE,MA,21845,,Provider: 275 TURNPIKE ST,,,42.2064195,-71.005067
720767622,17 CLARENCE ST,,WORCESTER,MA,16052,,Provider: 17 CLARENCE ST,,,42.287673653061226,-71.80890779591836
15989122,3 CHERRY ST,,NEWBURYPORT,MA,19503,,Provider: 3 CHERRY ST,,,42.80038345,-70.87664535540449
201609504,225 BOSTON ST,,LYNN,MA,19043,,Provider: 225 BOSTON ST,,,42.47049745,-70.96003668151566
421359230,201 S MAIN ST,,ATHOL,MA,13312,,Provider: 201 S MAIN ST,,,42.5913877,-72.24248995154954
965828270,64 WOODLANDS WAY,,BREWSTER,MA,26312,,Provider: 64 WOODLANDS WAY,,,41.737807,-70.0036669
211453361,146 FEDERAL ST,,GREENFIELD,MA,13012,,Provider: 146 FEDERAL ST,,,42.5928222,-72.5984235
165529998,191 MERRIMACK ST STE 712,,HAVERHILL,MA,18306,,Provider: 191 MERRIMACK ST STE 712,,,42.7742236,-71.08181133783422
237613163,430 N CANAL ST,,LAWRENCE,MA,18401,,Provider: 430 N CANAL ST,,,42.70511426530612,-71.16431740816327
561923588,75 KNEELAND ST,,BOSTON,MA,21111,,Provider: 75 KNEELAND ST,,,42.350222,-71.060605
467499606,54 COURT ST,,TAUNTON,MA,27803,,Provider: 54 COURT ST,,,41.9028629,-71.09718927122583
539445190,275 SANDWICH ST,,PLYMOUTH,MA,23602,,Provider: 275 SANDWICH ST,,,41.94186605,-70.6455366462985
304684090,140 COMMONWEALTH AVE STE 202,,DANVERS,MA,19233,,Provider: 140 COMMONWEALTH AVE STE 202,,,42.5524742,-70.94443165548033
745587168,251 Causeway St.,,Boston,MA,02114,,Provider: 251 Causeway St.,,,42.3665,-71.05931
335618823,42 CAPE RD,,MILFORD,MA,17573,,Provider: 42 CAPE RD,,,42.1274477,-71.5195252
807645739,70 BOLTWOOD WALK,,AMHERST,MA,10022,,Provider: 70 BOLTWOOD WALK,,,42.3768779,-72.51840280783739
144170471,94 N ELM ST,,WESTFIELD,MA,10852,,Provider: 94 N ELM ST,,,42.1322823,-72.7436679
955492763,110 W SQUANTUM ST,,QUINCY,MA,21712,,Provider: 110 W SQUANTUM ST,,,42.27259075,-71.03082765
960063544,325 WOOD RD,,WELLESLEY HILLS,MA,24812,,Provider: 325 WOOD RD,,,42.3130588,-71.2738201
49784267,130 Marshall Road,,Lowell,MA,01852,,Provider: 130 Marshall Road,,,42.62101,-71.31481
834118966,233 Stevens St,,Hyannis,MA,02601,,Provider: 233 Stevens St,,,41.651745,-70.294235
625408114,409 W BROADWAY,,SOUTH BOSTON,MA,21272,,Provider: 409 W BROADWAY,,,42.336831,-71.047958
170518681,30 ATHOL ST,,ALLSTON,MA,21341,,Provider: 30 ATHOL ST,,,42.36075595,-71.13397379082869
974005638,87 CHESTNUT ST,,NATICK,MA,17603,,Provider: 87 CHESTNUT ST,,,42.293559188306446,-71.35158050924959
14353590,75 FRANCIS ST,,WEST BRIDGEWATER,MA,23791,,Provider: 75 FRANCIS ST,,,42.0219112,-71.019004
662442160,677 W MAIN ST,,HYANNIS,MA,26013,,Provider: 677 W MAIN ST,,,41.6523127,-70.32027525205335
989161358,243 CHARLES ST,,STONEHAM,MA,21803,,Provider: 243 CHARLES ST,,,42.4814675,-71.0924311
977299465,33 AVON ST,,WAKEFIELD,MA,18802,,Provider: 33 AVON ST,,,42.50403445,-71.07462951514611
935964044,85 PATTON RD,,DEVENS,MA,14344,,Provider: 85 PATTON RD,,,42.5304204,-71.61505519305638
921854803,382 GROVE STREET,,BRAINTREE,MA,21847,,Provider: 382 GROVE STREET,,,42.1893694,-70.98451984814267
871644560,105 CHESTNUT ST,,NEEDHAM,MA,24922,,Provider: 105 CHESTNUT ST,,,42.2784618,-71.23770041644639
851749061,387 QUARRY ST,,FALL RIVER,MA,27231,,Provider: 387 QUARRY ST,,,41.6932713,-71.1402431739568
436309838,45 DIMOCK ST,,ROXBURY,MA,21191,,Provider: 45 DIMOCK ST,,,42.32030665,-71.09721114916246
87527445,15 RAILROAD AVE,,TOPSFIELD,MA,01983,,Provider: 15 RAILROAD AVE,,,42.6375935,-70.9494966
881548390,365 EAST ST,,TEWKSBURY,MA,18761,,Provider: 365 EAST ST,,,42.6069472,-71.2180803
409248584,161 JACKSON ST,,LOWELL,MA,18522,,Provider: 161 JACKSON ST,,,42.6425382,-71.3093946
143358212,2100 DORCHESTER AVENUE,,QUINCY,MA,21691,,Provider: 2100 DORCHESTER AVENUE,,,42.2509914,-71.0037374
386983608,67 BRIGHAM ST,,NEW BEDFORD,MA,27402,,Provider: 67 BRIGHAM ST,,,41.62716045,-70.9414201572985
129389511,6 GROVE ST,,NORWELL,MA,20611,,Provider: 6 GROVE ST,,,42.172231693916025,-70.87836493029226
621253062,2284 MAIN ST,,CONCORD,MA,17423,,Provider: 2284 MAIN ST,,,42.44300895,-71.42458458423982
396554202,735 ATTUCKS LN,,HYANNIS,MA,26011,,Provider: 735 ATTUCKS LN,,,41.6747631,-70.29768515601289
449823116,1601 WASHINGTON ST,,BOSTON,MA,21182,,Provider: 1601 WASHINGTON ST,,,42.3381394,-71.0748562
473897165,100 CENTURY DR,,WORCESTER,MA,16061,,Provider: 100 CENTURY DR,,,42.3138278,-71.7707002
143476542,450 WEST RIVER ST,,ORANGE,MA,13649,,Provider: 450 WEST RIVER ST,,,42.5928702,-72.32953998953418
783035618,50 MEMORIAL DR,,LEOMINSTER,MA,14532,,Provider: 50 MEMORIAL DR,,,42.541995,-71.7628835
980386942,55 FOGG ROAD,,WEYMOUTH,MA,21893,,Provider: 55 FOGG ROAD,,,42.1755398,-70.9539153674405
348618103,1290 TREMONT ST,,ROXBURY,MA,21203,,Provider: 1290 TREMONT ST,,,42.3327398,-71.09194864251029
191747339,77 WOLCOTT AVE,,NEW BEDFORD,MA,27451,,Provider: 77 WOLCOTT AVE,,,41.6362152,-70.934205
602153881,6 ESSEX CENTER DR,,PEABODY,MA,19602,,Provider: 6 ESSEX CENTER DR,,,42.539944,-70.950156
547090316,162 CHANDLER ST,,WORCESTER,MA,16092,,Provider: 162 CHANDLER ST,,,42.26037525,-71.81434480717176
415265567,309 TEATICKET HWY,,TEATICKET,MA,25365,,Provider: 309 TEATICKET HWY,,,41.568302200000005,-70.59404025373951
221779755,9 HOPE AVE,,WESTWOOD,MA,20902,,Provider: 9 HOPE AVE,,,42.2139873,-71.2244987
690186861,300 CHESTNUT ST,,NEEDHAM,MA,24922,,Provider: 300 CHESTNUT ST,,,42.27522125,-71.23743483674366
524975667,55 N WASHINGTON ST,,NORTH ATTLEBORO,MA,27601,,Provider: 55 N WASHINGTON ST,,,41.983529,-71.332241
275700544,100 HIGHLAND ST,,MILTON,MA,21863,,Provider: 100 HIGHLAND ST,,,42.250705749999995,-71.07724199194602
845177213,27 PARK ST,,HYANNIS,MA,26015,,Provider: 27 PARK ST,,,41.65363635,-70.27352219234834
13133941,231 SUTTON ST STE 1A,,NORTH ANDOVER,MA,18451,,Provider: 231 SUTTON ST STE 1A,,,42.70554405,-71.12856345
112660084,315 MAIN ST STE 101,,NORTH READING,MA,18641,,Provider: 315 MAIN ST STE 101,,,42.5967338,-71.11988300141903
534300721,710 MAIN STREET,,HARWICH PORT,MA,26461,,Provider: 710 MAIN STREET,,,41.669654699920855,-70.06169919459835
356282435,151 ROCK ST,,FALL RIVER,MA,27203,,Provider: 151 ROCK ST,,,41.70365955,-71.15259151299796
308068783,62 BROWN ST,,HAVERHILL,MA,01830,,Provider: 62 BROWN ST,,,42.76512700000001,-71.04617174286321
403133002,40 ARMINGTON ST,,ALLSTON,MA,21342,,Provider: 40 ARMINGTON ST,,,42.3521617,-71.1375176
816796955,14 TOWNSIDE LN,,WALPOLE,MA,20813,,Provider: 14 TOWNSIDE LN,,,42.1528227,-71.24396289112357
979481887,85 E NEWTON ST,,BOSTON,MA,21183,,Provider: 85 E NEWTON ST,,,42.3362771,-71.07085295687423
32227176,490 MAIN ST,,MELROSE,MA,21763,,Provider: 490 MAIN ST,,,42.4550741,-71.0654799
893823810,474 West Main Street,,Hyannis,MA,02601,,Provider: 474 West Main Street,,,41.650307,-70.313515
934175842,725 NORTH ST,,PITTSFIELD,MA,12015,,Provider: 725 NORTH ST,,,42.4600752,-73.2492795834909
496910198,100A WARREN ST,,BOSTON,MA,21242,,Provider: 100A WARREN ST,,,42.3279429,-71.0831806
246707429,225 Boston Road  Suite 107,,Lynn,MA,01904,,Provider: 225 Boston Road  Suite 107,,,42.470093,-70.95994
593415660,332 WASHINGTON STREET,,WELLESLEY,MA,24816,,Provider: 332 WASHINGTON STREET,,,42.310362049999995,-71.27601802190625
573889879,199 Main Street,,Gloucester,MA,01930,,Provider: 199 Main Street,,,42.613102,-70.66085
262355435,585 LINCOLN ST,,WORCESTER,MA,16051,,Provider: 585 LINCOLN ST,,,42.2962766,-71.7688972944814
623194468,680 CENTRE ST,,WEST BRIDGEWATER,MA,23791,,Provider: 680 CENTRE ST,,,42.0219112,-71.019004
795829677,63 STATE RD,,GREAT BARRINGTON,MA,12301,,Provider: 63 STATE RD,,,42.20224745,-73.35469687339696
739139505,235 HANOVER ST STE 105,,HYANNIS,MA,26012,,Provider: 235 HANOVER ST STE 105,,,41.6534847,-70.2823732
438611208,55 LAKE AVENUE NORTH,,WORCESTER,MA,16550,,Provider: 55 LAKE AVENUE NORTH,,,42.2774799,-71.76166994969458
874343495,29 E 29TH ST,,WEST NEWBURY,MA,19854,,Provider: 29 E 29TH ST,,,42.8014795,-70.989778
329185111,43 FOUNDRY AVE,,WALTHAM,MA,24538,,Provider: 43 FOUNDRY AVE,,,42.37050535,-71.21908334877376
941021234,78 BRICKYARD RD,,ATHOL,MA,01331,,Provider: 78 BRICKYARD RD,,,42.58312735,-72.2583516123911
362980709,75 SPRINGFIELD RD,,WESTFIELD,MA,10851,,Provider: 75 SPRINGFIELD RD,,,42.11142885,-72.71189899299209
617270980,516 CAREW ST,,SPRINGFIELD,MA,11042,,Provider: 516 CAREW ST,,,42.12133575,-72.59217953646302
17520772,750 WASHINGTON ST,,BOSTON,MA,21111,,Provider: 750 WASHINGTON ST,,,42.3499038,-71.0631836
60849633,38 BROAD STREET,,QUINCY,MA,21694,,Provider: 38 BROAD STREET,,,42.2560352,-70.99469254391217
467131880,145 WARD HILL AVENUE,,WESTBOROUGH,MA,15811,,Provider: 145 WARD HILL AVENUE,,,42.2694308,-71.6129907
562620869,395 PLEASANT ST,,NORTHAMPTON,MA,10603,,Provider: 395 PLEASANT ST,,,42.3150543,-72.62555561349089
362738753,71 HOSPITAL AVENUE,,NORTH ADAMS,MA,12472,,Provider: 71 HOSPITAL AVENUE,,,42.70714585,-73.10965876407255
580167247,123 WATERHOUSE ROAD,,BOURNE,MA,25323,,Provider: 123 WATERHOUSE ROAD,,,41.72840155,-70.58506829999999
589306980,363 ALBANY ST,,BOSTON,MA,21182,,Provider: 363 ALBANY ST,,,42.342456,-71.062887
706166385,364 STATE RD,,VINEYARD HAVEN,MA,25685,,Provider: 364 STATE RD,,,41.44720825,-70.61474940346154
216959691,20 RESEARCH PL,,NORTH CHELMSFORD,MA,18632,,Provider: 20 RESEARCH PL,,,42.6389798,-71.3828403
205348632,140 ARNHOW FARM ROAD,,FITCHBURG,MA,14201,,Provider: 140 ARNHOW FARM ROAD,,,42.5903661,-71.8119837
366127716,47 SEAVERNS AVE # 5,,BROOKLINE,MA,24463,,Provider: 47 SEAVERNS AVE # 5,,,42.3317642,-71.1211635
927710989,101 BARRY RD,,WORCESTER,MA,16091,,Provider: 101 BARRY RD,,,42.3030701,-71.8333408960994
647221682,1340 BOYLSTON ST,,BOSTON,MA,22154,,Provider: 1340 BOYLSTON ST,,,42.34392675,-71.09888049065322
852610445,480 MAPLE ST,,DANVERS,MA,19234,,Provider: 480 MAPLE ST,,,42.584178050000006,-70.97197467750539
833533417,726 COUNTY ST,,NORTH DARTMOUTH,MA,27473,,Provider: 726 COUNTY ST,,,41.6389926,-70.9703171
272649810,1193 SEA STREET,,TAUNTON,MA,27803,,Provider: 1193 SEA STREET,,,41.8946107,-71.11113
553222011,71 HOSPITAL AVE,,NORTH ADAMS,MA,12472,,Provider: 71 HOSPITAL AVE,,,42.70714585,-73.10965876407255
951048698,1 FARMER CIR,,ARLINGTON,MA,24742,,Provider: 1 FARMER CIR,,,42.42405225,-71.16792616556859
810012692,15 STRAW AVE,,FLORENCE,MA,10621,,Provider: 15 STRAW AVE,,,42.335654,-72.663286
588402088,70 EAST ST,,HAVERHILL,MA,18306,,Provider: 70 EAST ST,,,42.7777829,-71.0767724
356525425,300 PASTEUR DRIVE,,NEWTON,MA,24592,,Provider: 300 PASTEUR DRIVE,,,42.3370414,-71.2092214
156877331,125 PARKER HILL AVENUE,,DEDHAM,MA,20266,,Provider: 125 PARKER HILL AVENUE,,,42.2489143,-71.1755732
272381289,271 CAREW ST,,SPRINGFIELD,MA,11042,,Provider: 271 CAREW ST,,,42.11597825,-72.59301656598424
251597829,22 BRAMHALL ST,,SCITUATE,MA,20664,,Provider: 22 BRAMHALL ST,,,42.1939754,-70.7697128
122837434,10 CAREMATRIX DR,,DEDHAM,MA,20266,,Provider: 10 CAREMATRIX DR,,,42.2270762,-71.17237295563174
79914215,107 COMMERCIAL ST,,MASHPEE,MA,26496,,Provider: 107 COMMERCIAL ST,,,41.60736455,-70.49065684933157
333815237,1223 BEACON ST STE A,,BROOKLINE,MA,24465,,Provider: 1223 BEACON ST STE A,,,42.3430087,-71.1170155
520362692,300 FRIBERG PKWY,,WESTBOROUGH,MA,15813,,Provider: 300 FRIBERG PKWY,,,42.28350315,-71.58027718702151
61454088,581 FAUNCE CORNER RD,,DARTMOUTH,MA,27471,,Provider: 581 FAUNCE CORNER RD,,,41.676111381167445,-70.98788528176077
2324068,ONE HOSPITAL ROAD  FIRST FL  WING 5   PO BOX 1477,,OAK BLUFFS,MA,25571,,Provider: ONE HOSPITAL ROAD  FIRST FL  WING 5   PO,,,41.4538523,-70.5684713
323073660,18 NEWTON ST,,BROCKTON,MA,23015,,Provider: 18 NEWTON ST,,,42.0785392,-71.02602473630952
480052955,821 E MAIN ST STE 3,,CHICOPEE,MA,10206,,Provider: 821 E MAIN ST STE 3,,,42.15577479530051,-72.55672263289513
186259272,112 SOUTHAMPTON ST,,BOSTON,MA,21182,,Provider: 112 SOUTHAMPTON ST,,,42.33240995,-71.06915010706255
941844061,123 SUMMER STREET,,WORCESTER,MA,16102,,Provider: 123 SUMMER STREET,,,42.26496835,-71.79655403681465
463956611,199 REEDSDALE RD,,WALTHAM,MA,24511,,Provider: 199 REEDSDALE RD,,,42.3756401,-71.2358004
603317317,1049 MAIN STREET,,SPRINGFIELD,MA,11032,,Provider: 1049 MAIN STREET,,,42.09977055,-72.58470990760483
551927864,755 MAIN ST,,HAVERHILL,MA,18302,,Provider: 755 MAIN ST,,,42.797835,-71.0878121
210912978,138 S MAIN ST STE 14,,MILFORD,MA,17573,,Provider: 138 S MAIN ST STE 14,,,42.1270746,-71.51639128815474
653195071,123 SUMMER ST,,WORCESTER,MA,16081,,Provider: 123 SUMMER ST,,,42.26496835,-71.79655403681465
604376471,405 GROVE ST,,WORCESTER,MA,16041,,Provider: 405 GROVE ST,,,42.28737115,-71.80791697272812
422065065,340 PLEASANT ST,,BROCKTON,MA,23013,,Provider: 340 PLEASANT ST,,,42.08764334999999,-71.03287346676532
683914210,374 ROUTE 28,,WEST YARMOUTH,MA,26734,,Provider: 374 ROUTE 28,,,41.6514493,-70.24627055149762
275258251,10 ADAMS ST,,NORTH CHELMSFORD,MA,18631,,Provider: 10 ADAMS ST,,,42.6389249,-71.3840196
579203014,49 ROBINWOOD AVENUE,,QUINCY,MA,21698,,Provider: 49 ROBINWOOD AVENUE,,,42.2509914,-71.0037374
366627541,55 LAKE AVE N,,WORCESTER,MA,16550,,Provider: 55 LAKE AVE N,,,42.2774799,-71.76166994969458
103388318,1200 CENTRE ST,,ROSLINDALE,MA,21311,,Provider: 1200 CENTRE ST,,,42.29768,-71.130463
580990083,421 North Main Street,,Leeds,MA,01053,,Provider: 421 North Main Street,,,42.345066,-72.68291
522691242,8 BURNHAM ST,,TURNERS FALLS,MA,13761,,Provider: 8 BURNHAM ST,,,42.6042523,-72.5564777
170515837,64 CONCORD STREET,,WILMINGTON,MA,18872,,Provider: 64 CONCORD STREET,,,42.55962465,-71.13772203658047
308669981,27 CONGRESS ST,,SALEM,MA,19707,,Provider: 27 CONGRESS ST,,,42.518722068313224,-70.88940635956651
219553758,330 MOUNT AUBURN ST,,CAMBRIDGE,MA,21385,,Provider: 330 MOUNT AUBURN ST,,,42.3741033,-71.13417575971958
173087361,242 GREEN ST,,GARDNER,MA,14401,,Provider: 242 GREEN ST,,,42.58685735,-71.98748072431209
545206497,57 RIVER RD,,ANDOVER,MA,18101,,Provider: 57 RIVER RD,,,42.69112645,-71.19636086287642
431870632,3 EDGEWATER DR,,NORWOOD,MA,20624,,Provider: 3 EDGEWATER DR,,,42.16067115,-71.20186905283774
87782134,232 PLEASANT ST,,METHUEN,MA,18447,,Provider: 232 PLEASANT ST,,,42.7397562,-71.17113575205717
288187024,146 MAIN ST,,MAYNARD,MA,17542,,Provider: 146 MAIN ST,,,42.4309786,-71.4552968
272768950,201 HIGHLAND ST,,CLINTON,MA,15101,,Provider: 201 HIGHLAND ST,,,42.42738865,-71.69329092351188
478314231,1425 BLUE HILL AVENUE,,MATTAPAN,MA,21262,,Provider: 1425 BLUE HILL AVENUE,,,42.2754929,-71.09384131587021
240113571,73 RUSSELL RD,,HUNTINGTON,MA,10509,,Provider: 73 RUSSELL RD,,,42.2244752,-72.8709216
178636793,25 Bond Street,,Springfield,MA,01104,,Provider: 25 Bond Street,,,42.110065,-72.60007
420186097,511 W GROVE ST,,MIDDLEBORO,MA,23461,,Provider: 511 W GROVE ST,,,41.90036455,-70.9535889372234
343559737,529 MAIN ST STE B,,ACTON,MA,17203,,Provider: 529 MAIN ST STE B,,,42.4878132338563,-71.43046999422496
592794343,173 WORCESTER ST,,WELLESLEY,MA,24815,,Provider: 173 WORCESTER ST,,,42.2964859,-71.2925571
791948540,45 RESNIK RD,,SANDWICH,MA,02563,,Provider: 45 RESNIK RD,,,41.7579043,-70.4968152
101254224,44 FRONT ST FL 3,,WORCESTER,MA,16081,,Provider: 44 FRONT ST FL 3,,,42.2625621,-71.8018877
40863989,950 N MAIN ST STE 203,,RANDOLPH,MA,23683,,Provider: 950 N MAIN ST STE 203,,,42.1871612,-71.0568102
779459760,736 CAMBRIDGE ST,,BRIGHTON,MA,21353,,Provider: 736 CAMBRIDGE ST,,,42.348649949999995,-71.14799584850206
943011122,14 PROSPECT STREET,,UPTON,MA,15681,,Provider: 14 PROSPECT STREET,,,42.1700209025178,-71.59409308099494
94620641,1493 CAMBRIDGE ST,,SOMERVILLE,MA,21452,,Provider: 1493 CAMBRIDGE ST,,,42.3875968,-71.0994968
688667781,817 MERRIMACK ST,,LOWELL,MA,18543,,Provider: 817 MERRIMACK ST,,,42.650296999999995,-71.32263756223612
578145791,204 MAIN ST,,ORLEANS,MA,26533,,Provider: 204 MAIN ST,,,41.78516795,-69.96772048551409
28819857,81 HIGHLAND AVE,,SALEM,MA,19702,,Provider: 81 HIGHLAND AVE,,,42.5112107,-70.90516241826194
574486578,61 Lincoln Street  Suite 112,,Framingham,MA,01702,,Provider: 61 Lincoln Street  Suite 112,,,42.28348,-71.41845
223147880,11 WATER ST,,ARLINGTON,MA,02476,,Provider: 11 WATER ST,,,42.41642055,-71.15424293038585
199460295,977 MAIN ST,,WALTHAM,MA,24517,,Provider: 977 MAIN ST,,,42.376452150000006,-71.25063779999999
105884467,131 CAMBRIDGE ST STE 1,,BURLINGTON,MA,18033,,Provider: 131 CAMBRIDGE ST STE 1,,,42.50284395,-71.19574553661971
131076256,54 HOPEDALE ST,,HOPKINTON,MA,17481,,Provider: 54 HOPEDALE ST,,,42.2288875,-71.5196439
427129875,104 CHARLES ELDRIDGE RD,,LAKEVILLE,MA,23471,,Provider: 104 CHARLES ELDRIDGE RD,,,41.8459353,-70.9494854
850519078,102 MAIN ST,,GREENFIELD,MA,13013,,Provider: 102 MAIN ST,,,42.5879173,-72.6055828841603
427373303,7 Drydock Ave  Suite 2070,,Boston,MA,02210,,Provider: 7 Drydock Ave  Suite 2070,,,42.34461,-71.03728
110763313,77B WARREN ST,,BRIGHTON,MA,21353,,Provider: 77B WARREN ST,,,42.348002699999995,-71.14205064012461
220773230,250 POND STREET,,FRAMINGHAM,MA,17014,,Provider: 250 POND STREET,,,42.2838619,-71.4093719
105407937,800 WASHINGTON ST,,WOBURN,MA,18011,,Provider: 800 WASHINGTON ST,,,42.4946907,-71.1242899
832202144,326 NICHOLS RD,,FITCHBURG,MA,14201,,Provider: 326 NICHOLS RD,,,42.5974358,-71.80761197366103
996750381,209 W CENTRAL ST STE 216,,NATICK,MA,17603,,Provider: 209 W CENTRAL ST STE 216,,,42.28202598359604,-71.3899479380402
173408902,9 WARREN CT,,SALEM,MA,19703,,Provider: 9 WARREN CT,,,42.51586993877551,-70.90514912244899
25968769,416 BROADWAY,,RAYNHAM,MA,27671,,Provider: 416 BROADWAY,,,41.9406808,-71.07864352196617
310149220,38 MULBERRY ST STE 204,,NORTHAMPTON,MA,10602,,Provider: 38 MULBERRY ST STE 204,,,42.35436315,-72.70256804599192
80518089,4 COURTHOUSE LANE SUITE 1-3,,CHELMSFORD,MA,18241,,Provider: 4 COURTHOUSE LANE SUITE 1-3,,,42.62439345,-71.35881000636567
930068240,125 S CLARK ST STE 900,,FALL RIVER,MA,02722,,Provider: 125 S CLARK ST STE 900,,,41.74223,-71.129706
98605097,17 COURT ST,,BOSTON,MA,21082,,Provider: 17 COURT ST,,,42.3590416,-71.0583916
137653764,51 BLOSSOM ST,,BOSTON,MA,21142,,Provider: 51 BLOSSOM ST,,,42.36305545,-71.06643399281765
756584877,188 PROVIDENCE ST,,HYDE PARK,MA,21361,,Provider: 188 PROVIDENCE ST,,,42.2682551,-71.12174592925336
594162124,150 FLANDERS ROAD,,LYNN,MA,19042,,Provider: 150 FLANDERS ROAD,,,42.466763,-70.9494939
850187071,505 FRONT STREET,,CHICOPEE,MA,10133,,Provider: 505 FRONT STREET,,,42.14871685,-72.59756969862315
525829150,65 CENTRAL ST,,GEORGETOWN,MA,18332,,Provider: 65 CENTRAL ST,,,42.7211656,-70.99324119227308
319222389,260 MERRIMAC ST,,NEWBURYPORT,MA,19502,,Provider: 260 MERRIMAC ST,,,42.817380099999994,-70.88125573659471
468382189,2 REHABILITATION WAY,,WOBURN,MA,18016,,Provider: 2 REHABILITATION WAY,,,42.46352265,-71.161925472006
935029173,28 RIVERSIDE DR STE 101,,PEMBROKE,MA,23594,,Provider: 28 RIVERSIDE DR STE 101,,,42.11004715,-70.77534154695786
365354615,8 SHIPWAY PL # C-8,,CHARLESTOWN,MA,21294,,Provider: 8 SHIPWAY PL # C-8,,,42.3778749,-71.0619957
890868905,150 South Huntington Avenue,,Jamaica Plain,MA,02130,,Provider: 150 South Huntington Avenue,,,42.32809,-71.11076
501239601,990 PARADISE RD,,SWAMPSCOTT,MA,19071,,Provider: 990 PARADISE RD,,,42.48374535000001,-70.90120467000462
638884163,168 WALTON RD UNIT 19,,ROWLEY,MA,19692,,Provider: 168 WALTON RD UNIT 19,,,42.7136977,-70.8818364
975289051,72 SHARPE STREET,,SCITUATE,MA,20664,,Provider: 72 SHARPE STREET,,,42.1939754,-70.7697128
867704789,420 MAIN ST,,WALPOLE,MA,20812,,Provider: 420 MAIN ST,,,42.161882199999994,-71.2388707178431
724410629,632 BLUE  HILL AVENUE,,DORCHESTER,MA,21213,,Provider: 632 BLUE  HILL AVENUE,,,42.2941088,-71.0885355
513187125,385 GROVE ST,,WORCESTER,MA,16062,,Provider: 385 GROVE ST,,,42.286333299999995,-71.80745147942015
426097788,300 CONGRESS ST STE 203,,QUINCY,MA,21690,,Provider: 300 CONGRESS ST STE 203,,,42.2345525,-71.01493330273374
787262738,20 EAST ST,,HANOVER,MA,23391,,Provider: 20 EAST ST,,,42.1278249,-70.82664947485381
705928813,694 MAIN ST,,HOLDEN,MA,15201,,Provider: 694 MAIN ST,,,42.3406819,-71.8390289
364872526,10 OSTERVILLE WEST BARNSTABLE RD,,YARMOUTH PORT,MA,26752,,Provider: 10 OSTERVILLE WEST BARNSTABLE RD,,,41.7020544,-70.249465
411440108,381 PARK AVE,,WORCESTER,MA,16101,,Provider: 381 PARK AVE,,,42.2583962,-71.82204240042036
751480363,36 CORTADGE PARK,,PLYMOUTH,MA,23607,,Provider: 36 CORTADGE PARK,,,41.9426657,-70.7618592
113215600,345 COURT ST STE LL2,,PLYMOUTH,MA,23604,,Provider: 345 COURT ST STE LL2,,,41.97592055,-70.68653014146545
921950960,155 BROADWAY RD,,DRACUT,MA,18262,,Provider: 155 BROADWAY RD,,,42.67578279999999,-71.29320171860073
497359317,2000 WASHINGTON ST,,NEWTON,MA,24621,,Provider: 2000 WASHINGTON ST,,,42.332192250000006,-71.24597794166553
14136893,874 PURCHASE ST,,NEW BEDFORD,MA,27406,,Provider: 874 PURCHASE ST,,,41.636177,-70.926054
851372566,777 NORTH STREET,,PITTSFIELD,MA,12014,,Provider: 777 NORTH STREET,,,42.46054825,-73.24880457390918
56577943,61 LINCOLN ST,,FRAMINGHAM,MA,17028,,Provider: 61 LINCOLN ST,,,42.2834291,-71.4175609
314714805,200 CORDWAINER DR,,NORWELL,MA,20611,,Provider: 200 CORDWAINER DR,,,42.16352995,-70.8846291501739
918578529,228 ALMONT ST,,MATTAPAN,MA,21261,,Provider: 228 ALMONT ST,,,42.2805395,-71.09839825
921626705,101 STATION DR STE 240,,WESTWOOD,MA,20902,,Provider: 101 STATION DR STE 240,,,42.20728361922244,-71.15698168263435
934727813,1 GENERAL ST,,LAWRENCE,MA,18412,,Provider: 1 GENERAL ST,,,42.7097143,-71.15007700778098
574859318,95 Ashley Avenue  Suite A,,West Springfield,MA,01089,,Provider: 95 Ashley Avenue  Suite A,,,42.139397,-72.62382
668648022,780 MAIN STREET,,GREAT BARRINGTON,MA,12302,,Provider: 780 MAIN STREET,,,42.17823835,-73.36310566431717
794989018,118 MAIN ST,,STURBRIDGE,MA,15661,,Provider: 118 MAIN ST,,,42.0905134,-72.06606362965572
530565247,250 PARADISE RD,,SWAMPSCOTT,MA,01907,,Provider: 250 PARADISE RD,,,42.47638005,-70.91253402512964
823557426,570 BALDWINVILLE RD,,BALDWINVILLE,MA,14361,,Provider: 570 BALDWINVILLE RD,,,42.5953045,-72.07447782689232
560398872,83 LITTLEFIELD RD,,NEWTON,MA,24593,,Provider: 83 LITTLEFIELD RD,,,42.3104327,-71.18883283411856
269111566,62 WALNUT ST FL 2ND,,WELLESLEY,MA,24812,,Provider: 62 WALNUT ST FL 2ND,,,42.2964859,-71.2925571
907320792,1 BLACKBURN DR,,GLOUCESTER,MA,19302,,Provider: 1 BLACKBURN DR,,,42.6269312,-70.65555242413386
488338397,34 HAVERHILL ST,,LAWRENCE,MA,18412,,Provider: 34 HAVERHILL ST,,,42.71186535,-71.15197382279813
459914777,1575 CAMBRIDGE ST,,CAMBRIDGE,MA,21384,,Provider: 1575 CAMBRIDGE ST,,,42.375209549999994,-71.10711344152975
950426917,680 CENTRE ST,,BROCKTON,MA,23023,,Provider: 680 CENTRE ST,,,42.0872752,-70.9910738855076
817229946,625 MOUNT AUBURN ST,,CAMBRIDGE,MA,21384,,Provider: 625 MOUNT AUBURN ST,,,42.375351,-71.1468628
471928951,68 CAMP ST,,MASHPEE,MA,26493,,Provider: 68 CAMP ST,,,41.6484421,-70.4811383
636021981,134 Lebsack Lock Apt 16,,Attleboro,Ma,02861,,Patient: 134 Lebsack Lock Apt 16,,,41.88561593925116,-71.29439467999299
41800403,682 Mante Pathway Unit 73,,Ludlow,Ma,00000,,Patient: 682 Mante Pathway Unit 73,,,42.20172354739548,-72.49894389833575
233269822,213 Fadel Byway Apt 19,,Lawrence,Ma,01843,,Patient: 213 Fadel Byway Apt 19,,,42.71601290116356,-71.15984886406824
120929922,593 Trantow Approach,,Oakham,Ma,00000,,Patient: 593 Trantow Approach,,,42.33175297322498,-72.09320460628417
811373005,256 Schmeler Harbor,,Falmouth,Ma,02540,,Patient: 256 Schmeler Harbor,,,41.61962598640361,-70.57980423972545
936310170,766 Keeling Fort Apt 87,,East Bridgewater,Ma,00000,,Patient: 766 Keeling Fort Apt 87,,,42.063435097924504,-70.98244059197738
380763114,805 Jacobs Road,,Fall River,Ma,02790,,Patient: 805 Jacobs Road,,,41.67367243067033,-71.11117796131923
674205582,557 Block Path Suite 93,,Salem,Ma,01970,,Patient: 557 Block Path Suite 93,,,42.478717501285665,-70.92671675092053
72301797,393 Harvey Trail,,Fitchburg,Ma,01420,,Patient: 393 Harvey Trail,,,42.59870914579514,-71.80763382086916
111425729,318 Terry Row Unit 7,,Lawrence,Ma,01843,,Patient: 318 Terry Row Unit 7,,,42.761856780656274,-71.15288437655612
272912985,552 Gottlieb Plaza,,Barnstable,Ma,02672,,Patient: 552 Gottlieb Plaza,,,41.68336565234375,-70.2779780492666
574253301,780 Pollich Union,,Stoughton,Ma,00000,,Patient: 780 Pollich Union,,,42.125647523829066,-71.05469020037098
274907586,639 Cormier Harbor Suite 95,,Clinton,Ma,01510,,Patient: 639 Cormier Harbor Suite 95,,,42.38733819654739,-71.7315684706921
762629540,410 Upton Promenade,,Cambridge,Ma,02472,,Patient: 410 Upton Promenade,,,42.32110110967672,-71.06643153438864
973103103,868 Spinka Estate,,Boston,Ma,02129,,Patient: 868 Spinka Estate,,,42.331971563571535,-70.96375962077843
31788940,542 Murray Forge Apt 82,,Salisbury,Ma,01952,,Patient: 542 Murray Forge Apt 82,,,42.84989532541364,-70.79311732764224
807022299,766 Dooley Camp,,Weston,Ma,00000,,Patient: 766 Dooley Camp,,,42.334648472932976,-71.32813731889733
376282216,385 Hartmann Wynd Suite 35,,Ludlow,Ma,00000,,Patient: 385 Hartmann Wynd Suite 35,,,42.23198327491257,-72.48504487568601
862712850,529 Lemke Extension Unit 6,,Concord,Ma,00000,,Patient: 529 Lemke Extension Unit 6,,,42.49859407009829,-71.3158730721219
932846543,951 Carter Ferry Unit 22,,Shrewsbury,Ma,00000,,Patient: 951 Carter Ferry Unit 22,,,42.2393975490358,-71.6869463548976
233401566,510 Auer Forge,,Walpole,Ma,02081,,Patient: 510 Auer Forge,,,42.12560706707369,-71.26412400417206
419480776,1080 Beier Trailer,,Dartmouth,Ma,00000,,Patient: 1080 Beier Trailer,,,41.59246639669663,-70.97045646945523
883849004,435 Crona Wynd,,Wilmington,Ma,01887,,Patient: 435 Crona Wynd,,,42.57728053894093,-71.2140792174446
808059516,1052 Tillman Wynd Apt 66,,Worcester,Ma,01610,,Patient: 1052 Tillman Wynd Apt 66,,,42.23309556003214,-71.78619367868095
749034522,1000 O'Hara Stravenue,,Bliss Corner,Ma,00000,,Patient: 1000 O'Hara Stravenue,,,41.566445931034856,-70.9606768983141
712655937,1013 DuBuque Throughway Apt 97,,Everett,Ma,02148,,Patient: 1013 DuBuque Throughway Apt 97,,,42.42721973109808,-71.04932572290156
773732276,557 Senger Gardens Unit 95,,Malden,Ma,02155,,Patient: 557 Senger Gardens Unit 95,,,42.45842540468108,-71.08877751135155
381581400,212 Runte Lane Apt 83,,Marshfield,Ma,02050,,Patient: 212 Runte Lane Apt 83,,,42.066382645834054,-70.6777139311262
239270048,841 D'Amore Trace,,Cambridge,Ma,02138,,Patient: 841 D'Amore Trace,,,42.41350815746635,-71.10680060751396
414266032,334 Ferry Promenade Suite 71,,Lee,Ma,01238,,Patient: 334 Ferry Promenade Suite 71,,,42.255774241661335,-73.26395566441491
43183297,782 Feil Course,,Walpole,Ma,02081,,Patient: 782 Feil Course,,,42.18630791528053,-71.23555651513946
162917322,1033 Nolan Highlands Apt 82,,Malden,Ma,02155,,Patient: 1033 Nolan Highlands Apt 82,,,42.40040808885345,-71.10616921390834
55290718,116 Mayert Trace,,Weymouth,Ma,02191,,Patient: 116 Mayert Trace,,,42.178379847468705,-70.90869331326935
85984459,253 Kertzmann Ferry,,Haverhill,Ma,01835,,Patient: 253 Kertzmann Ferry,,,42.81349320357845,-71.17973921759989
821861068,132 Schamberger Byway Suite 32,,Fitchburg,Ma,01420,,Patient: 132 Schamberger Byway Suite 32,,,42.57766499020675,-71.83482747501228
149196575,925 McGlynn Port,,Pittsfield,Ma,01201,,Patient: 925 McGlynn Port,,,42.49743995818009,-73.22930818344808
659574659,364 Douglas Corner Suite 43,,Fall River,Ma,02721,,Patient: 364 Douglas Corner Suite 43,,,41.67415474498786,-71.1659579708655
624077021,124 Terry Dale Apt 4,,Waltham,Ma,02451,,Patient: 124 Terry Dale Apt 4,,,42.348613251775035,-71.2845271341913
186559533,566 Labadie Ferry,,Hinsdale,Ma,00000,,Patient: 566 Labadie Ferry,,,42.39465415672347,-73.12081145112577
521076605,244 Haley Harbor,,Newton,Ma,02468,,Patient: 244 Haley Harbor,,,42.336352523367054,-71.16874113411741
83202365,882 Hudson Lodge Apt 72,,Lowell,Ma,01851,,Patient: 882 Hudson Lodge Apt 72,,,42.67476131744586,-71.3332062481572
734048150,900 Gislason Alley Suite 24,,Randolph,Ma,02368,,Patient: 900 Gislason Alley Suite 24,,,42.14650050828174,-71.00219507526913
537182024,549 Orn Park Suite 54,,Middleborough,Ma,00000,,Patient: 549 Orn Park Suite 54,,,41.84079645931151,-70.89832520026025
775579105,558 Stehr Bay Suite 57,,Dedham,Ma,02090,,Patient: 558 Stehr Bay Suite 57,,,42.24986391944026,-71.18486972867704
46585049,468 Terry Frontage road Apt 88,,Danvers,Ma,01923,,Patient: 468 Terry Frontage road Apt 88,,,42.621920266792934,-70.9242789170473
41519800,632 Barrows Club,,Fall River,Ma,02721,,Patient: 632 Barrows Club,,,41.65816079523601,-71.14069520725918
240798909,167 Aufderhar Alley Suite 54,,Shrewsbury,Ma,00000,,Patient: 167 Aufderhar Alley Suite 54,,,42.28702715354951,-71.70368033663445
191943417,867 Dooley Rue,,Pittsfield,Ma,01201,,Patient: 867 Dooley Rue,,,42.40868731153369,-73.28779291177344
369396865,645 Pacocha Frontage road,,Blackstone,Ma,00000,,Patient: 645 Pacocha Frontage road,,,42.052344345364965,-71.57156346309843
319007707,635 Botsford Light,,Lawrence,Ma,01843,,Patient: 635 Botsford Light,,,42.69730479716747,-71.17379873775765
673234762,459 Wiegand Brook,,Hopkinton,Ma,01748,,Patient: 459 Wiegand Brook,,,42.19433426145311,-71.50821669686044
838246358,791 Morar Brook,,Gardner,Ma,01440,,Patient: 791 Morar Brook,,,42.574547618365536,-71.99057653840082
450100395,1039 Sauer Bay Unit 27,,Millbury,Ma,00000,,Patient: 1039 Sauer Bay Unit 27,,,42.15232343737442,-71.77430517822434
776140031,1082 Blick Grove Unit 83,,Middleton,Ma,00000,,Patient: 1082 Blick Grove Unit 83,,,42.6303616090109,-70.9961306412834
434127656,926 Dibbert Port Apt 95,,Springfield,Ma,01020,,Patient: 926 Dibbert Port Apt 95,,,42.07704521598504,-72.62866368523748
603439388,709 O'Kon Ferry Unit 89,,Lawrence,Ma,01840,,Patient: 709 O'Kon Ferry Unit 89,,,42.68070076940808,-71.11560579687924
462969719,384 Bernhard Mill Unit 7,,Warwick,Ma,00000,,Patient: 384 Bernhard Mill Unit 7,,,42.68565597563327,-72.308123927628
266523142,309 Hayes Vista,,Fall River,Ma,02724,,Patient: 309 Hayes Vista,,,41.6352715338083,-71.04653188520501
372910971,1079 Little Avenue,,Clinton,Ma,01510,,Patient: 1079 Little Avenue,,,42.42932782976086,-71.69163790742637
627382504,569 Fisher Heights Suite 38,,Hudson,Ma,01749,,Patient: 569 Fisher Heights Suite 38,,,42.38344861071765,-71.58191527527202
400277257,208 Gulgowski Orchard Unit 75,,Quincy,Ma,02186,,Patient: 208 Gulgowski Orchard Unit 75,,,42.24371837832235,-71.1213211119302
241662987,312 Daniel Alley Unit 92,,Lexington,Ma,02421,,Patient: 312 Daniel Alley Unit 92,,,42.4048214125439,-71.21648031317955
266043702,169 Eichmann Common,,Revere,Ma,02151,,Patient: 169 Eichmann Common,,,42.39080202525718,-70.98688727094301
618741491,1086 Stiedemann Vista Unit 89,,West Springfield,Ma,01089,,Patient: 1086 Stiedemann Vista Unit 89,,,42.09391035852115,-72.62556351286902
29842274,371 Schulist Fort Suite 23,,Worcester,Ma,01608,,Patient: 371 Schulist Fort Suite 23,,,42.263632156956504,-71.81124894276783
649105463,894 Bogan Trafficway Unit 33,,Granby,Ma,01033,,Patient: 894 Bogan Trafficway Unit 33,,,42.234988741467255,-72.46073509429175
318944333,389 Kuhlman View,,Everett,Ma,02149,,Patient: 389 Kuhlman View,,,42.40451877388201,-71.09863466549562
695330582,767 Bahringer Row,,Boston,Ma,02116,,Patient: 767 Bahringer Row,,,42.32350024579792,-71.0946124882866
577887451,274 Mante Underpass Unit 95,,Middleborough,Ma,00000,,Patient: 274 Mante Underpass Unit 95,,,41.849884680924205,-70.83574421015769
171053010,439 Gorczany Trailer Suite 11,,Southwick,Ma,00000,,Patient: 439 Gorczany Trailer Suite 11,,,42.02469145122933,-72.79251509795854
355740443,628 Turcotte Bypass Suite 63,,Springfield,Ma,01199,,Patient: 628 Turcotte Bypass Suite 63,,,42.16469228464302,-72.5109478633337
315268006,577 King Plaza Apt 2,,Tewksbury,Ma,00000,,Patient: 577 King Plaza Apt 2,,,42.593192335932606,-71.24542474436511
693808642,1016 Spencer Lane Apt 85,,East Falmouth,Ma,02536,,Patient: 1016 Spencer Lane Apt 85,,,41.619445240578465,-70.59835743108502
244119113,390 Leffler Manor Suite 99,,Cambridge,Ma,02138,,Patient: 390 Leffler Manor Suite 99,,,42.361832244110055,-71.0619085516327
427470519,696 Funk Gate,,Amherst,Ma,00000,,Patient: 696 Funk Gate,,,42.38354666304618,-72.54824766654806
111834121,707 Nitzsche Club Unit 91,,Granby,Ma,01033,,Patient: 707 Nitzsche Club Unit 91,,,42.29368120446387,-72.5486674871883
759331888,164 Douglas Green,,Uxbridge,Ma,00000,,Patient: 164 Douglas Green,,,42.08357927589336,-71.6301803002421
454416372,292 Rippin Corner Apt 59,,Orleans,Ma,02653,,Patient: 292 Rippin Corner Apt 59,,,41.76742868181633,-69.93065629744225
45070625,290 Cole Passage Apt 23,,Brookline,Ma,02215,,Patient: 290 Cole Passage Apt 23,,,42.30737954000988,-71.09649966069871
340219701,206 Dibbert Vista,,Beverly,Ma,01915,,Patient: 206 Dibbert Vista,,,42.59840749462543,-70.86785291816973
338226837,285 Boyer Light,,East Dennis,Ma,02641,,Patient: 285 Boyer Light,,,41.714101347814086,-70.15347828268861
713299643,1064 Lind Way Unit 99,,Worcester,Ma,01603,,Patient: 1064 Lind Way Unit 99,,,42.19250129053637,-71.82111550607165
840979380,133 Kunze Knoll Suite 80,,Springfield,Ma,01151,,Patient: 133 Kunze Knoll Suite 80,,,42.15428868140267,-72.50377074288706
530113054,907 Volkman Station,,Orleans,Ma,02653,,Patient: 907 Volkman Station,,,41.74633855727272,-69.97949350497802
937974530,971 Grant Lodge,,Sterling,Ma,00000,,Patient: 971 Grant Lodge,,,42.433440814667634,-71.76857487076059
693743365,857 Fay Bypass Unit 43,,Burlington,Ma,01730,,Patient: 857 Fay Bypass Unit 43,,,42.524759902081115,-71.26998664791297
110184436,142 Willms Fort Unit 57,,Framingham,Ma,01701,,Patient: 142 Willms Fort Unit 57,,,42.26578778283451,-71.42320003255614
524476239,115 Powlowski Brook Suite 71,,Fitchburg,Ma,01420,,Patient: 115 Powlowski Brook Suite 71,,,42.540610435890656,-71.77951760444078
166596772,609 Huel Corner,,Brookline,Ma,02467,,Patient: 609 Huel Corner,,,42.34655481796078,-71.1597107959668
990588756,870 Robel Path Unit 32,,Lowell,Ma,01850,,Patient: 870 Robel Path Unit 32,,,42.65201989122232,-71.35092399694172
544099264,615 Purdy Junction Apt 57,,Boston,Ma,02122,,Patient: 615 Purdy Junction Apt 57,,,42.42864751524861,-71.04110689084605
120097806,806 Langworth Rue Suite 9,,Salem,Ma,01907,,Patient: 806 Langworth Rue Suite 9,,,42.53794707253576,-70.91829509136248
738553719,250 O'Kon Forge,,Boston,Ma,02115,,Patient: 250 O'Kon Forge,,,42.37276955930276,-71.04811695161474
747759029,971 Pfeffer Ferry,,Bridgewater,Ma,02324,,Patient: 971 Pfeffer Ferry,,,41.96682608131363,-70.94684133762956
749339331,684 Carroll Trail Suite 37,,Lexington,Ma,02420,,Patient: 684 Carroll Trail Suite 37,,,42.438516060569185,-71.28882230013993
799187647,245 Davis Rest Apt 49,,Braintree,Ma,02184,,Patient: 245 Davis Rest Apt 49,,,42.24733620561606,-71.04280093764278
462839875,713 Torphy Trail Suite 18,,Auburn,Ma,00000,,Patient: 713 Torphy Trail Suite 18,,,42.19478745085355,-71.87732460756939
339697041,471 Stanton Dale Suite 54,,Boston,Ma,02128,,Patient: 471 Stanton Dale Suite 54,,,42.3645383152738,-71.00958801972699
903680444,174 Kemmer Center Unit 1,,Holyoke,Ma,01040,,Patient: 174 Kemmer Center Unit 1,,,42.21552447029572,-72.62946395311332
909230352,719 Konopelski Ramp,,Malden,Ma,02148,,Patient: 719 Konopelski Ramp,,,42.47352423802808,-71.03467947019277
394957264,135 Nienow Common,,Dennis,Ma,02638,,Patient: 135 Nienow Common,,,41.7614191890142,-70.19559657563698
666813511,800 DuBuque Way Apt 5,,Beverly,Ma,01915,,Patient: 800 DuBuque Way Apt 5,,,42.571811466786265,-70.87820733684275
489964415,177 Kshlerin Flat Suite 5,,Chicopee,Ma,01022,,Patient: 177 Kshlerin Flat Suite 5,,,42.205966939785434,-72.566121265686
756278215,1046 Dietrich Dale,,Southampton,Ma,00000,,Patient: 1046 Dietrich Dale,,,42.23623656176981,-72.774060064434
992872858,870 Murazik Byway,,Boston,Ma,02136,,Patient: 870 Murazik Byway,,,42.28467385931395,-71.0298658275911
949538127,1008 Hayes Plaza Unit 6,,Everett,Ma,02149,,Patient: 1008 Hayes Plaza Unit 6,,,42.38994549523909,-71.06976736872934
484545774,949 Gibson Crossroad,,Lexington,Ma,02420,,Patient: 949 Gibson Crossroad,,,42.407829872483106,-71.19917593520866
654511315,391 Adams Mission,,Norfolk,Ma,00000,,Patient: 391 Adams Mission,,,42.1407591474884,-71.36231710829217
366465857,859 Sipes Trace Suite 73,,Sharon,Ma,02067,,Patient: 859 Sipes Trace Suite 73,,,42.11588776003381,-71.13872703822595
235683614,793 Anderson Glen Unit 21,,Malden,Ma,02148,,Patient: 793 Anderson Glen Unit 21,,,42.410563860346066,-71.07577758693542
330277031,372 Weissnat Annex Suite 82,,Fall River,Ma,02723,,Patient: 372 Weissnat Annex Suite 82,,,41.57638655638985,-71.10423898834259
48196704,374 Rutherford Drive Suite 9,,Agawam,Ma,01001,,Patient: 374 Rutherford Drive Suite 9,,,42.09685253728079,-72.66358818850692
539812541,535 Bogisich Branch,,Charlton,Ma,00000,,Patient: 535 Bogisich Branch,,,42.152325208781114,-72.00309234891284
450311768,359 White Frontage road,,Fall River,Ma,02721,,Patient: 359 White Frontage road,,,41.7046658359857,-71.06958613220588
144230088,492 Ferry Byway Apt 95,,Southampton,Ma,00000,,Patient: 492 Ferry Byway Apt 95,,,42.26472929700603,-72.71755792220833
429782150,849 Muller Green,,Somerville,Ma,02144,,Patient: 849 Muller Green,,,42.392248156657345,-71.11017441307824
89441264,877 McCullough Fork Suite 53,,Pittsfield,Ma,01201,,Patient: 877 McCullough Fork Suite 53,,,42.46620780432695,-73.2929139032594
9675711,221 Kertzmann Fort,,Hingham,Ma,02043,,Patient: 221 Kertzmann Fort,,,42.22067138712304,-70.8743607873032
977530947,533 Tromp Dam Suite 72,,Malden,Ma,02148,,Patient: 533 Tromp Dam Suite 72,,,42.42811339876455,-71.06032117755785
226183461,477 Roberts Byway,,Swampscott,Ma,01907,,Patient: 477 Roberts Byway,,,42.48727278101384,-70.87704805173651
538055243,1009 Koelpin Center,,Malden,Ma,02155,,Patient: 1009 Koelpin Center,,,42.38739289453023,-71.04999757357697
506576195,929 Collins Estate Suite 44,,Haverhill,Ma,01830,,Patient: 929 Collins Estate Suite 44,,,42.77859641910086,-71.10152916820033
760477787,215 Batz Esplanade Unit 69,,Millis,Ma,00000,,Patient: 215 Batz Esplanade Unit 69,,,42.19947214524231,-71.3360968103918
326065143,646 Runolfsson Well,,Pittsfield,Ma,01201,,Patient: 646 Runolfsson Well,,,42.441435890715184,-73.26905700260778
244228528,199 Gutmann Brook Suite 61,,Scituate,Ma,02066,,Patient: 199 Gutmann Brook Suite 61,,,42.17213622150661,-70.69680349182643
104061246,194 Beahan Lane Suite 57,,Lowell,Ma,01850,,Patient: 194 Beahan Lane Suite 57,,,42.67744730899091,-71.34756713684861
611964731,585 Beahan Ville,,Belmont,Ma,02138,,Patient: 585 Beahan Ville,,,42.358636239434254,-71.1063893259066
849924406,964 Weber Orchard Suite 47,,Swampscott,Ma,01907,,Patient: 964 Weber Orchard Suite 47,,,42.47117767319349,-70.89419497261659
774621620,116 Jacobi Crossroad,,Gardner,Ma,01440,,Patient: 116 Jacobi Crossroad,,,42.63235785580367,-71.96916001659949
224814929,641 Hudson Promenade Suite 11,,Falmouth,Ma,02540,,Patient: 641 Hudson Promenade Suite 11,,,41.628380814886285,-70.55527709414419
430258238,552 Ledner Flat,,Westport,Ma,00000,,Patient: 552 Ledner Flat,,,41.53412369913535,-71.110978755128
88349043,668 Reynolds Track Apt 7,,Plymouth,Ma,02360,,Patient: 668 Reynolds Track Apt 7,,,41.91577439941382,-70.58424535071435
474737534,948 Fay Estate Suite 49,,Fitchburg,Ma,01420,,Patient: 948 Fay Estate Suite 49,,,42.552239778226955,-71.79669523309433
72734097,103 Rodriguez Park Suite 65,,Westfield,Ma,01085,,Patient: 103 Rodriguez Park Suite 65,,,42.1797856710917,-72.79135766708684
2362084,144 Kling Overpass Unit 4,,Fitchburg,Ma,01420,,Patient: 144 Kling Overpass Unit 4,,,42.6063975263564,-71.84416805759498
999626918,866 Jenkins Rapid,,Tewksbury,Ma,00000,,Patient: 866 Jenkins Rapid,,,42.59532246644564,-71.2365884201513
859701952,717 Bergstrom Pathway,,Holden,Ma,00000,,Patient: 717 Bergstrom Pathway,,,42.33037251423165,-71.8397995738654
806073390,123 Von Port,,Worcester,Ma,01605,,Patient: 123 Von Port,,,42.29846578597649,-71.79852081375017
298380995,528 Jaskolski Walk,,Westport,Ma,00000,,Patient: 528 Jaskolski Walk,,,41.62226932270549,-71.11187248662092
326083371,998 Marks Route Unit 32,,Boston,Ma,02118,,Patient: 998 Marks Route Unit 32,,,42.26910414639384,-71.07588948634202
568368193,381 Schumm Well Apt 16,,Boston,Ma,02126,,Patient: 381 Schumm Well Apt 16,,,42.3506057878071,-71.03660834292559
326890306,1033 Muller Ville Apt 68,,Fall River,Ma,02721,,Patient: 1033 Muller Ville Apt 68,,,41.63924729735562,-71.0875446340588
605850545,631 Reichel Estate Suite 71,,Franklin,Ma,02038,,Patient: 631 Reichel Estate Suite 71,,,42.10917941668768,-71.40818720830214
931110203,992 Waelchi Forge,,Stoneham,Ma,02180,,Patient: 992 Waelchi Forge,,,42.49240346727881,-71.11040733286808
33956393,220 Zieme Crossing,,Lakeville,Ma,00000,,Patient: 220 Zieme Crossing,,,41.817361291327494,-71.00581584639122
534590970,671 Wilderman Way Unit 82,,Fall River,Ma,02790,,Patient: 671 Wilderman Way Unit 82,,,41.74759589983499,-71.09575138692404
844431521,450 Stanton Run,,Avon,Ma,00000,,Patient: 450 Stanton Run,,,42.10349935546029,-71.07572618945507
744803760,301 Johns Parade,,Waltham,Ma,02472,,Patient: 301 Johns Parade,,,42.39977339206192,-71.24102089625093
154685354,999 Brakus Station,,Weymouth,Ma,02191,,Patient: 999 Brakus Station,,,42.196655522426134,-70.96140483543138
84145795,440 Pfeffer Brook,,Fall River,Ma,02790,,Patient: 440 Pfeffer Brook,,,41.73856060558376,-71.12494013915028
765584716,741 Gleichner Extension,,Dartmouth,Ma,00000,,Patient: 741 Gleichner Extension,,,41.57950275856349,-70.95949124974129
964907413,918 Spinka Wynd Suite 18,,Westford,Ma,00000,,Patient: 918 Spinka Wynd Suite 18,,,42.56540891770752,-71.48217952233134
929407882,590 Torp Throughway,,Plymouth,Ma,02360,,Patient: 590 Torp Throughway,,,41.89654538186319,-70.66161921850461
14396879,697 Hahn Wynd Apt 37,,Milford,Ma,01757,,Patient: 697 Hahn Wynd Apt 37,,,42.18991185335089,-71.47994158542807
970049216,1023 Hand Dam Suite 73,,Lynn,Ma,01904,,Patient: 1023 Hand Dam Suite 73,,,42.52101468348151,-70.978005224148
699336279,604 Ferry Crossroad,,Weymouth,Ma,02188,,Patient: 604 Ferry Crossroad,,,42.17131466936448,-70.90050125436932
625525602,928 Herzog Neck Suite 44,,Gardner,Ma,01440,,Patient: 928 Herzog Neck Suite 44,,,42.6044661488384,-71.97807977091061
149122971,193 Lehner Crossing Apt 30,,Swampscott,Ma,01907,,Patient: 193 Lehner Crossing Apt 30,,,42.46974331694868,-70.88661399827862
248430522,872 Schroeder Grove,,Worcester,Ma,01610,,Patient: 872 Schroeder Grove,,,42.22764944430703,-71.85321970874647
817705849,302 Bradtke Mission Unit 89,,Amherst,Ma,00000,,Patient: 302 Bradtke Mission Unit 89,,,42.35311198343923,-72.49092192559077
412659601,571 Spinka Rest,,Middleborough,Ma,00000,,Patient: 571 Spinka Rest,,,41.91469412157741,-70.85140253682447
543160474,218 Grimes Wynd Suite 84,,Westfield,Ma,01086,,Patient: 218 Grimes Wynd Suite 84,,,42.16585078300088,-72.80167806021218
412286023,107 Balistreri Gate Suite 28,,Cambridge,Ma,02138,,Patient: 107 Balistreri Gate Suite 28,,,42.43924026368211,-71.08415506292214
449051036,349 Grady Lock,,Cochituate,Ma,00000,,Patient: 349 Grady Lock,,,42.34671610673577,-71.38133704732381
152560046,1088 Metz Underpass Apt 54,,Boston,Ma,02116,,Patient: 1088 Metz Underpass Apt 54,,,42.334477413250035,-71.14882183646043
849753508,681 Bosco Manor Unit 61,,Northborough,Ma,01532,,Patient: 681 Bosco Manor Unit 61,,,42.29752557692704,-71.63683325111798
98926788,776 Yundt Byway,,Salisbury,Ma,01952,,Patient: 776 Yundt Byway,,,42.88749850072967,-70.81196376009866
386280540,204 Leannon Wynd Unit 91,,Wellesley,Ma,02482,,Patient: 204 Leannon Wynd Unit 91,,,42.33938291211535,-71.2736688360482
605634110,347 Satterfield Row Apt 22,,Lynn,Ma,01904,,Patient: 347 Satterfield Row Apt 22,,,42.50467235022293,-70.90177015654889
596309042,567 Wisozk Extension,,Boston,Ma,02163,,Patient: 567 Wisozk Extension,,,42.34533364719124,-71.1117740275425
898390644,281 Hickle Way Apt 35,,Arlington,Ma,02476,,Patient: 281 Hickle Way Apt 35,,,42.459216372147296,-71.18412556531918
536897830,307 Oberbrunner Gateway,,Dartmouth,Ma,00000,,Patient: 307 Oberbrunner Gateway,,,41.55535468827151,-70.98940832756003
120803975,163 Ankunding Extension,,Framingham,Ma,01702,,Patient: 163 Ankunding Extension,,,42.2783662432084,-71.46459023202551
226293958,369 Hessel Avenue Unit 72,,Halifax,Ma,00000,,Patient: 369 Hessel Avenue Unit 72,,,42.0278067082403,-70.84394734926553
267840091,766 Will Boulevard,,Arlington,Ma,02476,,Patient: 766 Will Boulevard,,,42.44129358159912,-71.1523334276265
293583300,119 Pagac Spur Unit 53,,Haverhill,Ma,01835,,Patient: 119 Pagac Spur Unit 53,,,42.761024921894744,-71.14241199307799
999360412,494 Jenkins Gardens,,Lexington,Ma,02420,,Patient: 494 Jenkins Gardens,,,42.49316080278647,-71.19242479714401
417270981,480 Heller Trail Unit 36,,Pembroke,Ma,00000,,Patient: 480 Heller Trail Unit 36,,,42.10702641388215,-70.83961957839117
414681845,1082 McCullough Gateway Unit 36,,Whitinsville,Ma,01588,,Patient: 1082 McCullough Gateway Unit 36,,,42.08760026411525,-71.63080307073474
658282163,296 Wintheiser Esplanade,,Hudson,Ma,01749,,Patient: 296 Wintheiser Esplanade,,,42.38858861774928,-71.55444348455838
274917439,824 Bradtke Orchard Unit 62,,Fairhaven,Ma,00000,,Patient: 824 Bradtke Orchard Unit 62,,,41.63910065537002,-70.88311540244612
511883645,392 Streich Well,,Barnstable,Ma,02637,,Patient: 392 Streich Well,,,41.6711559417053,-70.35109896317144
510072554,593 Pacocha Dale,,Malden,Ma,02155,,Patient: 593 Pacocha Dale,,,42.43599156896668,-71.08058698604289
206340211,121 Harber Mall,,Boston,Ma,02127,,Patient: 121 Harber Mall,,,42.25073084212707,-71.13183671331187
280735977,658 Kozey Key,,Boston,Ma,02115,,Patient: 658 Kozey Key,,,42.264108581917334,-71.13032784710367
99470473,248 Hilll Rue,,Newbury,Ma,00000,,Patient: 248 Hilll Rue,,,42.79416264250219,-70.85004339129313
871910107,137 Johnston Road,,Fall River,Ma,02720,,Patient: 137 Johnston Road,,,41.65137575379071,-71.13783420095336
673905421,293 Zboncak Trace Unit 80,,Weston,Ma,00000,,Patient: 293 Zboncak Trace Unit 80,,,42.3282266387293,-71.33132971280362
467512263,1098 Schmeler Fork Unit 91,,Everett,Ma,02148,,Patient: 1098 Schmeler Fork Unit 91,,,42.44418718166986,-71.07594459324258
885273249,495 Hickle Haven,,Brockton,Ma,02351,,Patient: 495 Hickle Haven,,,42.07646383272909,-71.01890240392773
955978277,130 D'Amore Vale,,Norwood,Ma,02090,,Patient: 130 D'Amore Vale,,,42.14421648972741,-71.21266925987972
321620077,179 Ryan Avenue,,Norwell,Ma,00000,,Patient: 179 Ryan Avenue,,,42.1495813027967,-70.83429999444817
153936682,870 Bashirian Walk Suite 38,,Dracut,Ma,00000,,Patient: 870 Bashirian Walk Suite 38,,,42.63075758596736,-71.33271709284814
87936264,999 Purdy Bypass Suite 40,,Southbridge,Ma,01550,,Patient: 999 Purdy Bypass Suite 40,,,42.0517602448878,-72.08147090696508
844300012,170 Treutel Track Unit 6,,Fall River,Ma,02720,,Patient: 170 Treutel Track Unit 6,,,41.64663573336124,-71.11211236643972
649874345,128 Dare Club,,Peabody,Ma,01940,,Patient: 128 Dare Club,,,42.51810355465716,-71.07358061143465
960404862,266 Brown Grove,,Medford,Ma,02155,,Patient: 266 Brown Grove,,,42.41273113670284,-71.06947174237865
397882282,878 Thiel Arcade Apt 52,,Leominster,Ma,01453,,Patient: 878 Thiel Arcade Apt 52,,,42.51538509139687,-71.72446526154876
137829097,458 Von Union Unit 85,,Hubbardston,Ma,00000,,Patient: 458 Von Union Unit 85,,,42.461862635690935,-72.04889779599374
516356745,750 Schiller Underpass,,Weweantic,Ma,00000,,Patient: 750 Schiller Underpass,,,41.721613546056986,-70.77626546414245
38624268,328 Murphy Ferry Suite 24,,Lawrence,Ma,01840,,Patient: 328 Murphy Ferry Suite 24,,,42.68602392800227,-71.13711261391279
701051516,408 Terry Heights,,Brockton,Ma,02351,,Patient: 408 Terry Heights,,,42.0480620184963,-71.02411084829038
879108165,473 Reilly Estate,,Methuen,Ma,01841,,Patient: 473 Reilly Estate,,,42.71666979857734,-71.1472517963426
108618056,307 Herman Mission Apt 43,,Methuen,Ma,01844,,Patient: 307 Herman Mission Apt 43,,,42.73549514007832,-71.18592183250777
43849758,418 Klein Trail Unit 69,,Walpole,Ma,02081,,Patient: 418 Klein Trail Unit 69,,,42.141858145175064,-71.25486333245712
322730891,466 West Green Suite 74,,Fall River,Ma,02747,,Patient: 466 West Green Suite 74,,,41.56380950785879,-71.08919378494646
282941358,1066 Rempel Mission,,Burlington,Ma,01803,,Patient: 1066 Rempel Mission,,,42.48036457986638,-71.21943215043109
442934724,419 Grady Station,,Mashpee,Ma,00000,,Patient: 419 Grady Station,,,41.58356691601679,-70.5190037725175
721949812,816 Kessler Dam Apt 5,,Holden,Ma,00000,,Patient: 816 Kessler Dam Apt 5,,,42.39615749847681,-71.86548811088377
611456744,854 Mohr Meadow Suite 16,,Fall River,Ma,02720,,Patient: 854 Mohr Meadow Suite 16,,,41.68649027418792,-71.16346214941612
687370955,156 Weimann Junction,,Southborough,Ma,00000,,Patient: 156 Weimann Junction,,,42.294832824132264,-71.49323896980005
964429545,873 Frami Track,,Bellingham,Ma,02019,,Patient: 873 Frami Track,,,42.122285109284384,-71.49786888069168
232021398,592 Marquardt Meadow,,Boston,Ma,02119,,Patient: 592 Marquardt Meadow,,,42.30100025920662,-71.13782239114656
606424570,641 Stoltenberg Quay,,Easthampton,Ma,01027,,Patient: 641 Stoltenberg Quay,,,42.260184703673275,-72.75294894969376
297018822,1049 O'Conner Crossroad,,Spencer,Ma,01562,,Patient: 1049 O'Conner Crossroad,,,42.26777779818919,-71.96158742283527
894416867,616 Cassin Spur Apt 13,,Belmont,Ma,02138,,Patient: 616 Cassin Spur Apt 13,,,42.36230422718589,-71.16748110215532
219422077,112 Jacobi Crossroad Unit 94,,Stoneham,Ma,02180,,Patient: 112 Jacobi Crossroad Unit 94,,,42.47459042120367,-71.05368358900415
982635323,202 Mraz Arcade,,Marshfield,Ma,02050,,Patient: 202 Mraz Arcade,,,42.06645600612011,-70.70899143760234
898866751,530 Beatty Trace,,Sharon,Ma,02067,,Patient: 530 Beatty Trace,,,42.079900335436704,-71.189780364993
968843811,522 Champlin Terrace,,Abington,Ma,02351,,Patient: 522 Champlin Terrace,,,42.11836575229197,-70.93747746640386
782016416,704 Becker Avenue Suite 82,,Brockton,Ma,02301,,Patient: 704 Becker Avenue Suite 82,,,42.09739229107675,-71.04709017511725
97286247,819 Cremin Ramp,,Somerville,Ma,02144,,Patient: 819 Cremin Ramp,,,42.41541441352727,-71.12599121873417
673929338,626 Gerhold Quay,,Beverly,Ma,01915,,Patient: 626 Gerhold Quay,,,42.52794295555234,-70.86477152157322
231799013,634 Purdy Corner,,Winthrop,Ma,02128,,Patient: 634 Purdy Corner,,,42.398306947413,-70.97198532846222
129345570,594 Borer Path Suite 76,,Boston,Ma,02127,,Patient: 594 Borer Path Suite 76,,,42.428184095871224,-70.99036605180113
825134839,842 Davis Bypass Suite 83,,Lincoln,Ma,00000,,Patient: 842 Davis Bypass Suite 83,,,42.38513780797119,-71.28512866352729
122822720,1059 Williamson Gardens,,Hanover,Ma,00000,,Patient: 1059 Williamson Gardens,,,42.15074799256689,-70.82625791658113
847051753,1059 Satterfield Mall,,Southwick,Ma,00000,,Patient: 1059 Satterfield Mall,,,42.075585278423546,-72.74954135213858
394973456,811 Hagenes Throughway,,Marblehead,Ma,01945,,Patient: 811 Hagenes Throughway,,,42.48930059433663,-70.88815427024025
664196656,435 Buckridge Park Apt 54,,Revere,Ma,02151,,Patient: 435 Buckridge Park Apt 54,,,42.461442278534555,-70.95922040701659
469865317,423 Pouros Plaza Apt 70,,Boston,Ma,02126,,Patient: 423 Pouros Plaza Apt 70,,,42.313381339748744,-71.07828628501431
829919860,933 Trantow Divide,,Oxford,Ma,01540,,Patient: 933 Trantow Divide,,,42.15132125087846,-71.83279430890632
359079918,1098 Kihn Throughway Suite 84,,Boston,Ma,02109,,Patient: 1098 Kihn Throughway Suite 84,,,42.358902772831954,-70.97651014545909
733971787,343 Bechtelar Green Suite 7,,Everett,Ma,02148,,Patient: 343 Bechtelar Green Suite 7,,,42.36934719894931,-71.02604235626735
990042863,420 Gleason Plaza,,Tewksbury,Ma,00000,,Patient: 420 Gleason Plaza,,,42.58035772257847,-71.22012526107221
16733204,920 Zboncak Lane Suite 43,,Marblehead,Ma,01945,,Patient: 920 Zboncak Lane Suite 43,,,42.473193892524094,-70.80384282976442
464895243,785 Ratke Promenade Unit 77,,Boston,Ma,02109,,Patient: 785 Ratke Promenade Unit 77,,,42.389366157184696,-71.03292205246609
750547085,665 Hayes Avenue Unit 7,,Framingham,Ma,01702,,Patient: 665 Hayes Avenue Unit 7,,,42.27428373621742,-71.44699455400132
810832536,917 Barton Landing,,Attleboro,Ma,02703,,Patient: 917 Barton Landing,,,41.916514745980535,-71.32701498342041
17638126,341 Dach Hollow Suite 2,,Cohasset,Ma,00000,,Patient: 341 Dach Hollow Suite 2,,,42.243760632095906,-70.83981971945607
661634892,211 Robel Wall,,Boylston,Ma,00000,,Patient: 211 Robel Wall,,,42.36255849401592,-71.67494704856959
752394636,1034 Hammes Rue Unit 51,,Baldwinville,Ma,01436,,Patient: 1034 Hammes Rue Unit 51,,,42.61783665437163,-72.10742826237271
749675417,219 Champlin Trace,,Chicopee,Ma,01020,,Patient: 219 Champlin Trace,,,42.1617333191731,-72.64358625277158
397466322,1008 Beahan Estate,,Worcester,Ma,01545,,Patient: 1008 Beahan Estate,,,42.32231231375696,-71.75693094084188
293575806,102 Hoeger Stravenue,,New Bedford,Ma,02748,,Patient: 102 Hoeger Stravenue,,,41.655604055092915,-70.95359657138471
723062879,979 Wunsch Ferry Apt 31,,Wareham,Ma,00000,,Patient: 979 Wunsch Ferry Apt 31,,,41.74641519937308,-70.72153601191515
317616957,612 Mueller Well,,Medford,Ma,02145,,Patient: 612 Mueller Well,,,42.4736749638638,-71.15000469739361
147781568,374 Harvey Meadow,,Fall River,Ma,02721,,Patient: 374 Harvey Meadow,,,41.66771145628281,-70.9769242257868
120941421,131 Strosin Center Apt 50,,Boston,Ma,02215,,Patient: 131 Strosin Center Apt 50,,,42.35898428275549,-71.02259434021907
231977141,635 Sawayn Center Apt 51,,Worcester,Ma,01602,,Patient: 635 Sawayn Center Apt 51,,,42.297576263092,-71.82328965756972
483274672,581 Goodwin Lane,,Newton,Ma,02468,,Patient: 581 Goodwin Lane,,,42.33852322577616,-71.27450429306387
745451,186 Friesen Tunnel,,Bedford,Ma,01730,,Patient: 186 Friesen Tunnel,,,42.516736896598985,-71.32777976164255
353939309,178 Wisoky Lane,,Plymouth,Ma,02360,,Patient: 178 Wisoky Lane,,,41.887623336110266,-70.62533387377799
6479980,370 Bradtke View,,Watertown,Ma,02472,,Patient: 370 Bradtke View,,,42.364832838096014,-71.17694444321899
350865398,361 Collins Dale,,Holyoke,Ma,01040,,Patient: 361 Collins Dale,,,42.23303822116761,-72.59496242495158
274825082,142 Abbott Trailer Suite 87,,Norfolk,Ma,00000,,Patient: 142 Abbott Trailer Suite 87,,,42.09752126781784,-71.35236117224761
165561604,737 Kunde Port Unit 4,,Pinehurst,Ma,01866,,Patient: 737 Kunde Port Unit 4,,,42.54296799649364,-71.22347529537517
386701853,665 Kautzer Terrace Unit 84,,Cambridge,Ma,02141,,Patient: 665 Kautzer Terrace Unit 84,,,42.41850056569453,-71.15563867232815
134451177,916 Altenwerth Alley Apt 77,,Brookline,Ma,02467,,Patient: 916 Altenwerth Alley Apt 77,,,42.304602094835296,-71.10651438535648
556929884,426 Klocko Boulevard Apt 5,,Worcester,Ma,01604,,Patient: 426 Klocko Boulevard Apt 5,,,42.2813066231352,-71.80444770189955
853735170,509 Pfannerstill Crossing Apt 27,,Boston,Ma,02120,,Patient: 509 Pfannerstill Crossing Apt 27,,,42.37983518590314,-71.08610847450859
622612510,699 Gerhold Extension Apt 91,,Sturbridge,Ma,01507,,Patient: 699 Gerhold Extension Apt 91,,,42.11311512254285,-71.99972311205832
236418590,981 Stanton Fort Apt 75,,Bedford,Ma,01730,,Patient: 981 Stanton Fort Apt 75,,,42.479645185511195,-71.2888145224953
998897204,293 Streich Arcade Suite 3,,Pembroke,Ma,00000,,Patient: 293 Streich Arcade Suite 3,,,42.096120870614186,-70.84929714150205
112590050,815 Lang Vista,,Quincy,Ma,02171,,Patient: 815 Lang Vista,,,42.28013596708925,-71.00138831128562
84558317,716 Kuhlman Orchard,,Quincy,Ma,02171,,Patient: 716 Kuhlman Orchard,,,42.28501424883857,-71.01149600310984
888830819,879 Hauck Orchard Unit 16,,Scituate,Ma,02066,,Patient: 879 Hauck Orchard Unit 16,,,42.18786692818527,-70.74078710657612
837827296,863 Sporer Esplanade Suite 40,,Medfield,Ma,02052,,Patient: 863 Sporer Esplanade Suite 40,,,42.17561288855871,-71.31166897214158
703228335,178 Sipes Junction Apt 63,,Boston,Ma,02132,,Patient: 178 Sipes Junction Apt 63,,,42.385919523084866,-71.08304609903895
525064805,1061 Hudson Row Unit 65,,Boston,Ma,02203,,Patient: 1061 Hudson Row Unit 65,,,42.365479559159255,-71.0571837139646
95941988,682 Gottlieb Village,,Springfield,Ma,01119,,Patient: 682 Gottlieb Village,,,42.097797054967025,-72.52027690014992
612279081,522 Bartoletti Lodge,,Fall River,Ma,02721,,Patient: 522 Bartoletti Lodge,,,41.70423616613263,-71.16672023593993
49345072,988 Gislason Gardens Suite 24,,Springfield,Ma,01106,,Patient: 988 Gislason Gardens Suite 24,,,42.143474724948184,-72.59265834370211
663275528,244 Adams Ramp,,Watertown,Ma,02472,,Patient: 244 Adams Ramp,,,42.38673053975318,-71.19993443415254
787402455,786 Roob Brook,,Melrose,Ma,02176,,Patient: 786 Roob Brook,,,42.44372858437185,-71.01329559018204
625051368,502 Hartmann Landing,,Worcester,Ma,01603,,Patient: 502 Hartmann Landing,,,42.26989934937462,-71.84234946842571
825505706,820 Dare Dam,,Quincy,Ma,02171,,Patient: 820 Dare Dam,,,42.21704628020047,-71.06455975949018
359596825,338 Casper Ferry,,Westwood,Ma,00000,,Patient: 338 Casper Ferry,,,42.18523534092766,-71.21737784929383
843000835,600 Hackett Underpass Unit 71,,Northborough,Ma,01532,,Patient: 600 Hackett Underpass Unit 71,,,42.37308440540986,-71.62608118139181
868203838,775 Von Plaza Apt 7,,Gloucester,Ma,01930,,Patient: 775 Von Plaza Apt 7,,,42.60514210371337,-70.63197275528768
245121690,706 Dibbert Landing Unit 21,,Woburn,Ma,01801,,Patient: 706 Dibbert Landing Unit 21,,,42.44295801295081,-71.2019975775891
762878023,788 Walker Way Suite 76,,Ashland,Ma,00000,,Patient: 788 Walker Way Suite 76,,,42.26667030496676,-71.52064606118297
996932911,350 Murazik Ranch Apt 60,,Bellingham,Ma,02019,,Patient: 350 Murazik Ranch Apt 60,,,42.04055531926795,-71.43546807107852
1639142,583 Huels Overpass,,Hull,Ma,02045,,Patient: 583 Huels Overpass,,,42.32291849403488,-70.90315341568879
566958209,201 Wunsch Vale,,Medford,Ma,02145,,Patient: 201 Wunsch Vale,,,42.3667387426825,-71.12833896801806
168953526,952 Stokes Brook Suite 86,,Andover,Ma,01810,,Patient: 952 Stokes Brook Suite 86,,,42.687517898942616,-71.18148830863463
655668232,452 Hansen Grove Apt 38,,Springfield,Ma,01129,,Patient: 452 Hansen Grove Apt 38,,,42.09609075072405,-72.56363341906025
117862794,474 Dibbert Forge,,Everett,Ma,02148,,Patient: 474 Dibbert Forge,,,42.38626646739031,-71.0625145423307
977794794,218 Sauer Parade,,Boston,Ma,02199,,Patient: 218 Sauer Parade,,,42.34818694119341,-71.14564527773632
315079361,598 Volkman Village Suite 85,,Easthampton,Ma,01027,,Patient: 598 Volkman Village Suite 85,,,42.27505250171818,-72.78444326029573
93438963,840 Johns Boulevard Unit 66,,Pepperell,Ma,01463,,Patient: 840 Johns Boulevard Unit 66,,,42.704891335045424,-71.63921714478238
316542176,901 Kovacek Plaza Suite 55,,Marblehead,Ma,01945,,Patient: 901 Kovacek Plaza Suite 55,,,42.53873448932581,-70.84314837059277
133571640,533 Bechtelar Approach Suite 77,,Franklin,Ma,02038,,Patient: 533 Bechtelar Approach Suite 77,,,42.11589521086036,-71.37519222218585
11006160,698 Bruen Village,,Burlington,Ma,01803,,Patient: 698 Bruen Village,,,42.459190538179485,-71.26262767347676
931726908,657 Renner Underpass,,Reading,Ma,01801,,Patient: 657 Renner Underpass,,,42.549530081772254,-71.08852503815226
154526520,555 Roob Well,,Andover,Ma,01810,,Patient: 555 Roob Well,,,42.6059288607339,-71.18842917820707
565408597,684 Dare Esplanade,,Athol,Ma,01331,,Patient: 684 Dare Esplanade,,,42.57228631750643,-72.17687055762502
561852959,496 Ebert Gateway Apt 36,,Worcester,Ma,01609,,Patient: 496 Ebert Gateway Apt 36,,,42.24397593000404,-71.85937808570105
994815584,885 Quitzon Heights,,North Reading,Ma,00000,,Patient: 885 Quitzon Heights,,,42.605491577658945,-71.11840412811566
118932050,817 Champlin Ramp Unit 38,,Attleboro,Ma,02861,,Patient: 817 Champlin Ramp Unit 38,,,41.86911920992405,-71.39001616764664
920541025,1051 Breitenberg Gate,,Turners Falls,Ma,01376,,Patient: 1051 Breitenberg Gate,,,42.608504722023135,-72.56016857170934
641152254,878 Hettinger Club Unit 6,,Boston,Ma,02152,,Patient: 878 Hettinger Club Unit 6,,,42.366947597837544,-71.05675766227593
214393543,346 Lesch Well Unit 21,,Chelsea,Ma,02151,,Patient: 346 Lesch Well Unit 21,,,42.384172537859826,-71.01857947278424
155932939,450 Ankunding Quay Unit 83,,Westford,Ma,00000,,Patient: 450 Ankunding Quay Unit 83,,,42.54467703717218,-71.44348647331195
748245024,704 Russel Promenade Unit 48,,Weymouth,Ma,02191,,Patient: 704 Russel Promenade Unit 48,,,42.170103422827474,-70.97531471094605
321364609,292 Hauck Center Suite 71,,Fall River,Ma,02724,,Patient: 292 Hauck Center Suite 71,,,41.70526156719954,-71.01756929875627
880284894,719 Larson Bay,,Wrentham,Ma,00000,,Patient: 719 Larson Bay,,,42.01313073536412,-71.40411520397694
544323111,812 Raynor Rue,,Dracut,Ma,00000,,Patient: 812 Raynor Rue,,,42.66604798514235,-71.26505240175612
637289153,119 Botsford Forge,,Billerica,Ma,00000,,Patient: 119 Botsford Forge,,,42.519306802888195,-71.28111474194256
825456969,1046 Jacobs Plaza Apt 98,,Revere,Ma,02151,,Patient: 1046 Jacobs Plaza Apt 98,,,42.3993093419535,-70.97653650324249
58979616,679 Dickens Flat,,Marshfield,Ma,02050,,Patient: 679 Dickens Flat,,,42.15154782057361,-70.72658670212753
423770926,974 Little Passage Apt 68,,Middleborough,Ma,00000,,Patient: 974 Little Passage Apt 68,,,41.83683139530426,-70.82646173251065
641128796,892 Lang Overpass Apt 7,,Medford,Ma,02155,,Patient: 892 Lang Overpass Apt 7,,,42.394925383823626,-71.1407944305731
472173305,563 Parisian Dam Unit 98,,Shelburne Falls,Ma,01370,,Patient: 563 Parisian Dam Unit 98,,,42.63974518474011,-72.72009784924747
665185823,818 MacGyver Way,,Northbridge,Ma,00000,,Patient: 818 MacGyver Way,,,42.16994747839155,-71.62018643273639
930934111,162 Johnston Ramp Unit 27,,Northampton,Ma,01063,,Patient: 162 Johnston Ramp Unit 27,,,42.28103560012331,-72.68472415854073
331364352,507 McCullough Bypass Suite 26,,Lakeville,Ma,00000,,Patient: 507 McCullough Bypass Suite 26,,,41.82043193970092,-70.99467769918351
680328933,152 Gutmann Ramp Unit 80,,Springfield,Ma,01103,,Patient: 152 Gutmann Ramp Unit 80,,,42.139985275204765,-72.55185348159696
274587046,1052 Runte Well,,Greenfield,Ma,01301,,Patient: 1052 Runte Well,,,42.5944748601152,-72.63172251451473
765700317,335 Kozey Mission Unit 59,,Lawrence,Ma,01840,,Patient: 335 Kozey Mission Unit 59,,,42.656865045735714,-71.19945111973183
997973639,1013 Stoltenberg Lodge,,Lakeville,Ma,00000,,Patient: 1013 Stoltenberg Lodge,,,41.83236243079487,-70.99613981264717
242322639,548 Wisozk Mill Suite 35,,New Bedford,Ma,02740,,Patient: 548 Wisozk Mill Suite 35,,,41.60208243345411,-70.95566793953073
651884858,867 Bailey Station Suite 66,,Arlington,Ma,02476,,Patient: 867 Bailey Station Suite 66,,,42.3947381652629,-71.19065865531454
848519370,911 Reilly Harbor Unit 55,,Holden,Ma,00000,,Patient: 911 Reilly Harbor Unit 55,,,42.3239450780894,-71.86180434978085
60884083,567 Price Arcade,,Bellingham,Ma,02019,,Patient: 567 Price Arcade,,,42.09463081465641,-71.48079093082032
433838780,404 Bernhard Throughway,,Boston,Ma,02124,,Patient: 404 Bernhard Throughway,,,42.25033318256885,-71.07883913375012
393102711,1006 Abshire Crossroad,,New Bedford,Ma,02748,,Patient: 1006 Abshire Crossroad,,,41.66403543178407,-71.05807352398354
147522886,253 Purdy Camp,,Rutland,Ma,01543,,Patient: 253 Purdy Camp,,,42.42154144280227,-71.99801446067731
186020049,784 Towne Divide,,Salisbury,Ma,01952,,Patient: 784 Towne Divide,,,42.85704731272371,-70.87256012276212
283732192,357 Reilly Trafficway,,Bourne,Ma,02532,,Patient: 357 Reilly Trafficway,,,41.74513870870578,-70.55720774164281
958824800,403 Runte Bridge,,Raynham,Ma,00000,,Patient: 403 Runte Bridge,,,41.90440319643061,-71.00159811570063
583269377,778 Walter Village Unit 13,,Waltham,Ma,02452,,Patient: 778 Walter Village Unit 13,,,42.43668556478777,-71.25543278933176
697122710,414 Lesch Village,,Taunton,Ma,02767,,Patient: 414 Lesch Village,,,41.9314866910572,-71.1205474461001
910065474,261 Turcotte Course Unit 2,,Ashburnham,Ma,00000,,Patient: 261 Turcotte Course Unit 2,,,42.59974824955579,-71.9200281296649
411518279,696 Stoltenberg Common Apt 59,,Quincy,Ma,02186,,Patient: 696 Stoltenberg Common Apt 59,,,42.34245191481302,-70.9850765530877
533908765,500 Howell Fort,,Boston,Ma,02129,,Patient: 500 Howell Fort,,,42.34192054096902,-71.0605167715149
701500347,863 Frami Trafficway,,Springfield,Ma,01109,,Patient: 863 Frami Trafficway,,,42.073319672897966,-72.62397514697213
927650474,197 O'Connell Pathway,,Lowell,Ma,01854,,Patient: 197 O'Connell Pathway,,,42.65266209883076,-71.38333096098748
360205148,273 Williamson Ranch,,Milford,Ma,01757,,Patient: 273 Williamson Ranch,,,42.126558980090714,-71.47293812191373
733539753,203 Kreiger Vista,,Billerica,Ma,00000,,Patient: 203 Kreiger Vista,,,42.51850451488583,-71.25867629837245
565556302,263 Medhurst Manor,,Littleton,Ma,00000,,Patient: 263 Medhurst Manor,,,42.545238518700565,-71.53864247313949
12459921,296 Lindgren Frontage road Apt 76,,Woburn,Ma,01890,,Patient: 296 Lindgren Frontage road Apt 76,,,42.4451659120976,-71.09600299047136
494468085,434 Ullrich Lodge,,Boston,Ma,02124,,Patient: 434 Ullrich Lodge,,,42.3588589019613,-71.05630257376913
436281957,927 Wuckert Annex Suite 7,,Sagamore,Ma,02561,,Patient: 927 Wuckert Annex Suite 7,,,41.74853886761722,-70.54522876945494
115083051,392 Shields Lock Unit 33,,South Hadley,Ma,00000,,Patient: 392 Shields Lock Unit 33,,,42.28036572193393,-72.5509680310246
725638598,467 Welch Parade Unit 0,,Springfield,Ma,01020,,Patient: 467 Welch Parade Unit 0,,,42.10492411521464,-72.57655382079943
476160266,606 Kulas Underpass Unit 28,,Wilbraham,Ma,01095,,Patient: 606 Kulas Underpass Unit 28,,,42.13222988764164,-72.39253741483931
9161214,617 Hamill Pathway,,Boston,Ma,02118,,Patient: 617 Hamill Pathway,,,42.32598860501615,-70.99664160691425
620660095,232 Kassulke Approach Apt 44,,Sudbury,Ma,00000,,Patient: 232 Kassulke Approach Apt 44,,,42.4155002611401,-71.43375540363111
382239422,235 Christiansen Light Suite 42,,Quincy,Ma,02169,,Patient: 235 Christiansen Light Suite 42,,,42.32806112389407,-71.01326985504464
698231561,764 Macejkovic Junction Suite 57,,Plymouth,Ma,02360,,Patient: 764 Macejkovic Junction Suite 57,,,41.94522172272075,-70.5758196285845
832275247,641 Bauch Esplanade Suite 40,,Braintree,Ma,02184,,Patient: 641 Bauch Esplanade Suite 40,,,42.209516868861755,-71.00069698554105
375319572,914 Satterfield Avenue Apt 44,,Georgetown,Ma,00000,,Patient: 914 Satterfield Avenue Apt 44,,,42.67901603527746,-70.99522214519595
660621672,332 Swaniawski Bridge,,Cummington,Ma,00000,,Patient: 332 Swaniawski Bridge,,,42.433823113286,-72.90722491346982
682380931,337 Cronin Branch,,Worcester,Ma,01608,,Patient: 337 Cronin Branch,,,42.19767575866653,-71.81425693233483
994728250,678 Boyer Gardens Unit 63,,Westford,Ma,00000,,Patient: 678 Boyer Gardens Unit 63,,,42.58763960036072,-71.4511490275923
49756874,1052 Gerhold View,,Barnstable,Ma,02632,,Patient: 1052 Gerhold View,,,41.71934238760131,-70.35242848952764
906591166,862 Marks Skyway,,Peabody,Ma,01940,,Patient: 862 Marks Skyway,,,42.56500364850816,-71.07978961195494
745169802,800 Price Harbor Suite 59,,Wilmington,Ma,01887,,Patient: 800 Price Harbor Suite 59,,,42.51976279793008,-71.1886263973425
464987313,460 Waters Highlands,,Raynham,Ma,00000,,Patient: 460 Waters Highlands,,,41.96535830805057,-71.02660914092962
740264917,685 Sanford Well Apt 19,,Peabody,Ma,01940,,Patient: 685 Sanford Well Apt 19,,,42.56945183903502,-70.96153158805905
834600045,302 Lind Bypass,,Acton,Ma,00000,,Patient: 302 Lind Bypass,,,42.48578018080023,-71.41651508361267
380283430,297 Legros Skyway,,Attleboro,Ma,02703,,Patient: 297 Legros Skyway,,,41.88640627279744,-71.3880772263534
449024979,732 Kozey Terrace,,Wilmington,Ma,01887,,Patient: 732 Kozey Terrace,,,42.55348311083216,-71.11556852142625
986272334,526 Vandervort Approach,,Boston,Ma,02121,,Patient: 526 Vandervort Approach,,,42.34227410242602,-71.10476585463519
265413531,781 Blanda Ranch,,Cummington,Ma,00000,,Patient: 781 Blanda Ranch,,,42.488252026061254,-72.87159435876626
664218735,477 Reichert Club,,Williamsburg,Ma,00000,,Patient: 477 Reichert Club,,,42.392471809334715,-72.73873563057376
778272654,127 Volkman Arcade Apt 54,,New Bedford,Ma,02747,,Patient: 127 Volkman Arcade Apt 54,,,41.63834549224599,-70.97702786439125
645879834,536 Hilpert Plaza,,Peabody,Ma,01940,,Patient: 536 Hilpert Plaza,,,42.54427352122389,-70.9571304060354
876859153,294 Emmerich Trace Unit 81,,Williamstown,Ma,01267,,Patient: 294 Emmerich Trace Unit 81,,,42.71387874768139,-73.28243760165293
707782556,201 Weissnat Trailer Apt 80,,Stoughton,Ma,00000,,Patient: 201 Weissnat Trailer Apt 80,,,42.100389528358896,-71.11678212096972
703440909,323 Hegmann Burg Apt 33,,Douglas,Ma,00000,,Patient: 323 Hegmann Burg Apt 33,,,42.07179472642964,-71.75362759919255
828560203,1093 Sipes Vista Apt 52,,Andover,Ma,01810,,Patient: 1093 Sipes Vista Apt 52,,,42.65459903938847,-71.19408278457448
909993199,119 Franecki Highlands,,Boston,Ma,02122,,Patient: 119 Franecki Highlands,,,42.329659972163064,-71.16661986405943
230803956,241 Bartell Neck,,Scituate,Ma,02066,,Patient: 241 Bartell Neck,,,42.20568826980057,-70.79884780320215
818719544,358 Predovic Junction Apt 27,,Chelsea,Ma,02150,,Patient: 358 Predovic Junction Apt 27,,,42.41656835961665,-70.95562992854076
928981032,419 Daugherty Bay Apt 75,,Pembroke,Ma,00000,,Patient: 419 Daugherty Bay Apt 75,,,42.114188217101145,-70.83933431583964
712030816,238 Bernier Junction Unit 24,,Boston,Ma,02118,,Patient: 238 Bernier Junction Unit 24,,,42.39027665437475,-71.04774732693463
288949155,306 Ondricka Mission,,Bridgewater,Ma,02324,,Patient: 306 Ondricka Mission,,,41.98694798698275,-71.0141653484522
446344473,755 O'Connell Promenade Unit 93,,Needham,Ma,02494,,Patient: 755 O'Connell Promenade Unit 93,,,42.23884938723168,-71.27907689112118
715517575,913 Dickinson Bridge Apt 72,,Boston,Ma,02115,,Patient: 913 Dickinson Bridge Apt 72,,,42.34839927031534,-71.1332823883699
729801480,332 Rowe Corner Unit 85,,Dover,Ma,02030,,Patient: 332 Rowe Corner Unit 85,,,42.210708833278254,-71.24248089708058
898038654,126 Bayer Fork,,Boston,Ma,02109,,Patient: 126 Bayer Fork,,,42.36384914662387,-71.05814288427915
974640498,164 Ankunding Forge Apt 94,,Lexington,Ma,02420,,Patient: 164 Ankunding Forge Apt 94,,,42.461319953386926,-71.17852904631503
652714316,770 Padberg Passage,,Ocean Bluff-Brant Rock,Ma,00000,,Patient: 770 Padberg Passage,,,42.14536540831772,-70.66388586457917
859253793,983 Kshlerin Well Suite 12,,Peabody,Ma,01960,,Patient: 983 Kshlerin Well Suite 12,,,42.48795981123866,-70.98980014834474
554365849,697 Daugherty Key,,Worcester,Ma,01606,,Patient: 697 Daugherty Key,,,42.237887829908,-71.79749468877468
295763878,141 Boehm Trace Unit 73,,Medford,Ma,02145,,Patient: 141 Boehm Trace Unit 73,,,42.46836352315914,-71.13539287649381
423428868,991 Lakin Center,,Lynn,Ma,01907,,Patient: 991 Lakin Center,,,42.46303340823934,-70.91770110979009
937394036,107 Hintz Manor,,Boston,Ma,02136,,Patient: 107 Hintz Manor,,,42.37571187540308,-71.08418266013169
294339948,415 Hamill Brook Suite 34,,Brockton,Ma,02301,,Patient: 415 Hamill Brook Suite 34,,,42.03762533417107,-71.02984367517492
788292157,537 Jerde Plaza Apt 60,,Boston,Ma,02113,,Patient: 537 Jerde Plaza Apt 60,,,42.34330501184208,-71.08436553182324
149391961,180 Kutch Forge Apt 15,,Pinehurst,Ma,01866,,Patient: 180 Kutch Forge Apt 15,,,42.50131612235984,-71.25930644867161
51919907,142 Reichel Haven Apt 34,,Newton,Ma,02467,,Patient: 142 Reichel Haven Apt 34,,,42.34630593491717,-71.21416986960133
112421976,130 Bogisich Drive Apt 53,,Gloucester,Ma,01930,,Patient: 130 Bogisich Drive Apt 53,,,42.630755357606624,-70.63893207330075
449630748,637 Jacobi Forge Suite 16,,Cambridge,Ma,02140,,Patient: 637 Jacobi Forge Suite 16,,,42.33736501195405,-71.07147883599984
541442127,140 Kozey Gateway Suite 77,,Lynn,Ma,01905,,Patient: 140 Kozey Gateway Suite 77,,,42.503579338989454,-70.98677218487596
586044033,625 Conroy Light,,Shrewsbury,Ma,00000,,Patient: 625 Conroy Light,,,42.328359912499685,-71.67902147909498
347289775,619 O'Kon Esplanade,,Salem,Ma,01970,,Patient: 619 O'Kon Esplanade,,,42.5221118244653,-70.9380265312488
671028536,885 Kautzer Path Unit 59,,New Bedford,Ma,02743,,Patient: 885 Kautzer Path Unit 59,,,41.5216633481075,-70.93439448991286
866606433,292 Thiel Orchard Apt 45,,Fitchburg,Ma,01420,,Patient: 292 Thiel Orchard Apt 45,,,42.62833821310512,-71.8198654947345
292722768,629 Schoen Light Apt 5,,Attleboro,Ma,02861,,Patient: 629 Schoen Light Apt 5,,,41.96130914237287,-71.30984912595258
514765924,911 Anderson Plaza,,Sudbury,Ma,00000,,Patient: 911 Anderson Plaza,,,42.384261567654825,-71.37985647334581
369418250,225 Krajcik Route,,Quincy,Ma,02169,,Patient: 225 Krajcik Route,,,42.25979400759651,-71.03365158427657
237976277,202 Smith Branch Apt 82,,Dracut,Ma,00000,,Patient: 202 Smith Branch Apt 82,,,42.71108775355022,-71.34663769539289
838270374,629 Maggio Lodge Unit 27,,Lynn,Ma,01904,,Patient: 629 Maggio Lodge Unit 27,,,42.428264380163114,-70.95776007507651
622939294,441 Cartwright Stravenue Unit 41,,Boston,Ma,02203,,Patient: 441 Cartwright Stravenue Unit 41,,,42.4108991235222,-71.02373724244224
65643351,301 Brakus Trafficway Suite 97,,Dartmouth,Ma,00000,,Patient: 301 Brakus Trafficway Suite 97,,,41.57476712141724,-70.91930736838347
133691236,766 White Rest,,New Bedford,Ma,02740,,Patient: 766 White Rest,,,41.639632194735306,-70.92280102324249
391593804,177 Zieme Track Suite 9,,North Andover,Ma,00000,,Patient: 177 Zieme Track Suite 9,,,42.65484981365854,-71.105974062094
252241021,172 Rogahn Gateway Suite 90,,Boston,Ma,02126,,Patient: 172 Rogahn Gateway Suite 90,,,42.354676839503696,-71.01521833606736
579228531,209 Rau Terrace Unit 57,,Marlborough,Ma,01752,,Patient: 209 Rau Terrace Unit 57,,,42.35519071895379,-71.53517783194872
499788774,412 Witting Route Apt 89,,Boston,Ma,02203,,Patient: 412 Witting Route Apt 89,,,42.404507476271654,-71.02276504442821
775750165,187 Kiehn Row,,Attleboro,Ma,02861,,Patient: 187 Kiehn Row,,,41.89709180662148,-71.29382467268105
853095905,250 Gottlieb Hollow Apt 41,,Westwood,Ma,00000,,Patient: 250 Gottlieb Hollow Apt 41,,,42.17782153503241,-71.1827248386977
713264237,300 Maggio Throughway Unit 12,,Williamstown,Ma,01267,,Patient: 300 Maggio Throughway Unit 12,,,42.69559677170414,-73.2079296009571
342141332,476 Muller Bypass Apt 76,,Norwell,Ma,00000,,Patient: 476 Muller Bypass Apt 76,,,42.16363442845877,-70.8192330331987
196681388,752 Medhurst Rue,,Reading,Ma,01867,,Patient: 752 Medhurst Rue,,,42.56972322342322,-71.06976544835254
487490292,478 Pacocha Mill Unit 86,,Upton,Ma,01568,,Patient: 478 Pacocha Mill Unit 86,,,42.142036978437446,-71.6064688309786
